elevation,mindate,maxdate,latitude,name,datacoverage,id,elevationUnit,longitude
294.4,2008-05-01,2008-08-18,43.954439,"ADAMS 0.4 E, WI US",0.9636,GHCND:US1WIAD0002,METERS,-89.809642
305.7,2015-11-06,2025-11-03,44.205337,"NEKOOSA 8.0 SSE, WI US",0.6165,GHCND:US1WIAD0005,METERS,-89.847984
307.8,2016-09-07,2024-01-03,43.885849,"GRAND MARSH 1.0 W, WI US",0.7189,GHCND:US1WIAD0006,METERS,-89.725901
310.0,2017-08-26,2020-05-19,43.861082,"GRAND MARSH 1.9 SSW, WI US",0.6914,GHCND:US1WIAD0008,METERS,-89.716321
293.8,2018-08-14,2025-11-03,43.78638889,"OXFORD 4.0 W, WI US",0.95,GHCND:US1WIAD0010,METERS,-89.64166667
288.3,2020-05-25,2025-10-21,43.785477,"OXFORD 4.3 W, WI US",0.3543,GHCND:US1WIAD0015,METERS,-89.648344
315.5,2020-07-07,2025-09-21,44.062284,"FRIENDSHIP 6.4 NNE, WI US",0.4009,GHCND:US1WIAD0016,METERS,-89.794774
302.7,2020-07-28,2022-08-26,44.062836,"FRIENDSHIP 6.4 N, WI US",0.8737,GHCND:US1WIAD0017,METERS,-89.800145
210.0,2010-09-08,2017-09-20,46.5818,"ASHLAND 0.5 WNW, WI US",0.2576,GHCND:US1WIAS0003,METERS,-90.8842
213.4,2010-10-06,2025-11-03,46.5824,"ASHLAND 0.5 WNW, WI US",0.9966,GHCND:US1WIAS0004,METERS,-90.8839
189.6,2012-12-02,2023-11-09,46.604618,"ODANAH 1.6 E, WI US",0.7462,GHCND:US1WIAS0006,METERS,-90.649157
207.6,2019-04-24,2025-11-02,46.58946,"ASHLAND 0.6 N, WI US",0.9396,GHCND:US1WIAS0011,METERS,-90.87387
376.1,2019-06-10,2020-10-18,46.35603,"MELLEN 2.4 NNW, WI US",0.5473,GHCND:US1WIAS0012,METERS,-90.67605
233.8,2021-04-26,2025-08-23,46.4780542,"ASHLAND 7.2 SSE, WI US",0.3624,GHCND:US1WIAS0017,METERS,-90.8397802
245.7,2023-05-21,2024-08-22,46.4064238,"MARENGO 1.6 SE, WI US",0.45,GHCND:US1WIAS0029,METERS,-90.7927278
473.4,2024-05-07,2025-05-28,46.0163808,"BUTTERNUT 0.2 NNW, WI US",0.7804,GHCND:US1WIAS0031,METERS,-90.4988647
279.8,2017-04-15,2025-11-03,44.399911,"MONDOVI 12.1 SSE, WI US",0.6016,GHCND:US1WIBF0002,METERS,-91.603142
250.2,2018-09-08,2019-10-08,44.575796,"MONDOVI 0.5 NNE, WI US",0.4975,GHCND:US1WIBF0003,METERS,-91.664321
331.6,2023-05-01,2025-11-03,44.4579,"INDEPENDENCE 9.1 NW, WI US",0.6362,GHCND:US1WIBF0009,METERS,-91.54541
245.1,2024-04-17,2025-11-02,44.2677864,"COCHRANE 4.2 NE, WI US",0.9097,GHCND:US1WIBF0010,METERS,-91.770803
178.9,2007-04-12,2013-11-19,44.528893,"GREEN BAY 2.4 WNW, WI US",0.6272,GHCND:US1WIBN0001,METERS,-88.037621
210.6,2010-04-04,2025-07-06,44.661108,"SUAMICO 4.4 WNW, WI US",0.8773,GHCND:US1WIBN0006,METERS,-88.117828
200.6,2011-05-16,2015-06-16,44.549855,"GREEN BAY 6.3 WNW, WI US",0.8493,GHCND:US1WIBN0007,METERS,-88.111146
194.8,2011-07-06,2016-12-09,44.441971,"DE PERE 2.4 W, WI US",0.5126,GHCND:US1WIBN0008,METERS,-88.119227
183.5,2012-09-19,2014-04-05,44.4501495361328,"GREEN BAY 5.3 SSW, WI US",0.9273,GHCND:US1WIBN0010,METERS,-88.0306396484375
192.0,2013-01-07,2015-04-16,44.484748840332,"ASHWAUBENON 0.3 WSW, WI US",0.3988,GHCND:US1WIBN0012,METERS,-88.0890655517578
189.3,2013-05-12,2025-11-02,44.467725,"GREEN BAY 3.8 SSE, WI US",1.0,GHCND:US1WIBN0014,METERS,-87.973523
198.1,2013-08-03,2018-08-25,44.5466,"HOWARD 2.9 SW, WI US",0.1222,GHCND:US1WIBN0015,METERS,-88.1223
231.0,2014-10-13,2025-10-15,44.60656,"NEW FRANKEN 5.3 NNE, WI US",0.3641,GHCND:US1WIBN0018,METERS,-87.81176
195.1,2016-05-11,2022-06-16,44.396452,"DE PERE 4.3 SW, WI US",0.1966,GHCND:US1WIBN0020,METERS,-88.137033
199.0,2017-07-25,2025-11-03,44.32735,"WRIGHTSTOWN 0.4 ENE, WI US",0.9924,GHCND:US1WIBN0022,METERS,-88.16669
214.0,2021-07-09,2025-10-31,44.572916,"GREEN BAY 7.1 WNW, WI US",0.5102,GHCND:US1WIBN0029,METERS,-88.115647
193.5,2021-06-17,2025-10-30,44.5086633,"GREEN BAY 4.1 WSW, WI US",0.8673,GHCND:US1WIBN0031,METERS,-88.071997
230.1,2022-03-19,2023-11-09,44.4907,"GREEN BAY 3.5 SE, WI US",0.5058,GHCND:US1WIBN0032,METERS,-87.9339
264.3,2022-07-27,2024-11-15,44.274027,"MORRISON 3.9 ESE, WI US",0.3036,GHCND:US1WIBN0036,METERS,-87.9186
185.6,2023-04-05,2025-10-26,44.461533,"GREEN BAY 4.4 SSW, WI US",0.1902,GHCND:US1WIBN0037,METERS,-88.021233
183.2,2023-04-03,2025-11-03,44.42922,"DE PERE 2.0 ESE, WI US",0.9736,GHCND:US1WIBN0039,METERS,-88.032964
200.9,2023-05-10,2025-11-02,44.4844463,"GREEN BAY 2.9 SSE, WI US",0.5452,GHCND:US1WIBN0040,METERS,-87.9623954
196.6,2023-07-01,2025-11-03,44.5288,"GREEN BAY 3.3 E, WI US",0.8028,GHCND:US1WIBN0041,METERS,-87.922892
200.6,2023-04-08,2025-11-03,44.58241,"GREEN BAY 6.5 NW, WI US",0.9586,GHCND:US1WIBN0044,METERS,-88.0915
187.1,2024-06-24,2025-11-02,44.46658,"ALLOUEZ 0.8 WSW, WI US",0.5895,GHCND:US1WIBN0047,METERS,-88.040226
189.0,2024-05-01,2025-11-03,44.551805,"HOWARD 1.7 SSW, WI US",0.9511,GHCND:US1WIBN0048,METERS,-88.094575
181.1,2024-05-17,2024-11-29,44.4422301,"DE PERE 2.1 E, WI US",0.8883,GHCND:US1WIBN0049,METERS,-88.0292919
321.0,2007-04-02,2025-11-03,45.294267,"CHETEK 2.0 SE, WI US",0.8716,GHCND:US1WIBR0002,METERS,-91.62475
320.6,2011-11-24,2016-12-09,45.38063333,"CAMERON 2.4 SE, WI US",0.8958,GHCND:US1WIBR0006,METERS,-91.70483333
347.5,2012-07-03,2025-11-02,45.4915962219238,"RICE LAKE 0.6 SE, WI US",0.3782,GHCND:US1WIBR0007,METERS,-91.7303466796875
322.5,2014-03-21,2015-09-30,45.3245130926371,"CHETEK 0.8 NW, WI US",0.2934,GHCND:US1WIBR0008,METERS,-91.6638084501028
312.7,2013-09-27,2024-05-28,45.25187,"CHETEK 5.7 SW, WI US",0.1437,GHCND:US1WIBR0011,METERS,-91.72591
397.5,2015-05-15,2016-07-14,45.314731,"HILLSDALE 2.4 E, WI US",0.6089,GHCND:US1WIBR0012,METERS,-91.809646
390.1,2015-06-17,2018-05-30,45.56004,"CUMBERLAND 3.0 NW, WI US",0.507,GHCND:US1WIBR0013,METERS,-92.074202
345.0,2016-03-12,2017-05-28,45.4672,"RICE LAKE 2.1 SSE, WI US",0.991,GHCND:US1WIBR0015,METERS,-91.7276
327.1,2016-03-30,2025-10-22,45.369002,"CAMERON 3.2 SW, WI US",0.1239,GHCND:US1WIBR0016,METERS,-91.787112
361.5,2016-05-14,2022-03-01,45.3407363891602,"CLAYTON 2.9 ENE, WI US",0.7082,GHCND:US1WIBR0017,METERS,-92.1115875244141
311.8,2016-04-01,2025-11-03,45.24953,"CHETEK 5.8 SW, WI US",0.6136,GHCND:US1WIBR0018,METERS,-91.72425
366.1,2016-04-02,2025-10-23,45.580829,"RICE LAKE 5.8 N, WI US",0.1627,GHCND:US1WIBR0019,METERS,-91.748392
323.4,2016-05-02,2019-05-18,45.2251968383789,"PRAIRIE FARM 3.3 WSW, WI US",0.1331,GHCND:US1WIBR0020,METERS,-92.0465698242188
377.6,2016-05-04,2017-05-02,45.5145072937012,"CUMBERLAND 2.9 ESE, WI US",0.5192,GHCND:US1WIBR0021,METERS,-91.9717559814453
374.3,1998-06-17,2018-08-25,45.5268211364746,"CUMBERLAND 3.5 E, WI US",0.0428,GHCND:US1WIBR0022,METERS,-91.9520492553711
370.9,2016-07-04,2017-09-30,45.559194,"CUMBERLAND 2.8 NW, WI US",0.5661,GHCND:US1WIBR0023,METERS,-92.069338
390.1,2018-06-01,2022-12-22,45.58678,"CUMBERLAND 3.6 NNE, WI US",0.8685,GHCND:US1WIBR0026,METERS,-92.00498
388.3,2018-07-03,2021-04-07,45.536295,"CUMBERLAND 0.4 W, WI US",0.2782,GHCND:US1WIBR0027,METERS,-92.030582
383.7,2019-04-01,2020-12-20,45.57239,"CUMBERLAND 2.7 NNE, WI US",0.9333,GHCND:US1WIBR0030,METERS,-92.00388
362.1,2019-04-20,2025-11-03,45.327451,"CHETEK 5.7 W, WI US",0.9577,GHCND:US1WIBR0031,METERS,-91.768762
353.0,2019-05-08,2022-10-03,45.3291635,"CAMERON 5.1 S, WI US",0.4048,GHCND:US1WIBR0032,METERS,-91.7451189
337.7,2020-04-29,2024-07-02,45.409871,"CAMERON 0.6 NE, WI US",0.1363,GHCND:US1WIBR0037,METERS,-91.736515
351.1,2020-05-18,2025-10-31,45.430355,"CAMERON 3.5 ENE, WI US",0.4476,GHCND:US1WIBR0038,METERS,-91.682471
375.5,2021-09-01,2025-06-02,45.546909,"CUMBERLAND 0.8 N, WI US",0.1145,GHCND:US1WIBR0040,METERS,-92.022257
322.8,2022-03-18,2025-11-01,45.30572,"CHETEK 1.6 ESE, WI US",0.5623,GHCND:US1WIBR0041,METERS,-91.62429
364.8,2023-08-24,2024-10-25,45.4343,"CAMERON 3.6 NE, WI US",0.2541,GHCND:US1WIBR0045,METERS,-91.68276
371.2,2024-03-19,2024-11-21,45.595318,"HAUGEN 4.7 E, WI US",0.4476,GHCND:US1WIBR0052,METERS,-91.681822
294.1,2007-03-16,2023-10-01,45.7728,"GRANTSBURG 0.6 SSW, WI US",0.3384,GHCND:US1WIBT0001,METERS,-92.6886
299.9,2007-03-21,2025-11-03,45.883268,"SPOONER 10.6 WNW, WI US",0.7082,GHCND:US1WIBT0002,METERS,-92.096029
306.3,2011-01-17,2014-11-12,45.9891,"WEBB LAKE 2.2 SW, WI US",0.1626,GHCND:US1WIBT0003,METERS,-92.1694
277.4,2013-10-23,2018-11-07,45.766567,"GRANTSBURG 1.9 WSW, WI US",0.6927,GHCND:US1WIBT0005,METERS,-92.718243
314.2,2016-04-06,2024-10-25,45.845325,"SPOONER 7.7 W, WI US",0.1478,GHCND:US1WIBT0007,METERS,-92.050584
287.1,2017-04-06,2018-04-30,45.930696,"WEBSTER 3.6 N, WI US",0.5051,GHCND:US1WIBT0009,METERS,-92.373853
310.9,2018-06-19,2025-11-03,45.951848,"OAKLAND 9.0 ENE, WI US",0.8323,GHCND:US1WIBT0014,METERS,-92.216535
282.2,2020-05-10,2025-11-03,45.77559,"GRANTSBURG 0.6 SW KWIGRANT1, WI US",0.8927,GHCND:US1WIBT0021,METERS,-92.694324
306.9,2021-04-05,2025-11-03,45.965926,"SPOONER 13.1 NW, WI US",0.5269,GHCND:US1WIBT0022,METERS,-92.073922
303.0,2021-04-06,2025-11-03,45.891962,"WEBSTER 4.4 ENE, WI US",0.5451,GHCND:US1WIBT0023,METERS,-92.272946
300.2,2021-04-16,2022-12-17,46.00778,"WEBB LAKE 1.1 W, WI US",0.9967,GHCND:US1WIBT0024,METERS,-92.15528
302.4,2021-05-08,2024-03-22,45.8525,"WEBSTER 7.3 ESE, WI US",0.1971,GHCND:US1WIBT0025,METERS,-92.2151
317.3,2021-09-16,2025-10-23,45.7279382,"FREDERIC 10.6 ENE, WI US",0.4063,GHCND:US1WIBT0026,METERS,-92.2687327
327.4,2020-04-29,2022-11-15,45.810528,"HERTEL 1.2 E, WI US",0.1074,GHCND:US1WIBT0027,METERS,-92.148887
322.2,2022-03-13,2022-12-24,45.9648,"DANBURY 3.9 SE, WI US",0.9408,GHCND:US1WIBT0029,METERS,-92.3142
319.4,2021-08-13,2024-07-23,46.14272,"DANBURY 11.8 N, WI US",0.1245,GHCND:US1WIBT0030,METERS,-92.22454
310.6,2020-06-17,2025-11-03,46.05871,"DANBURY 5.6 NE, WI US",0.2696,GHCND:US1WIBT0031,METERS,-92.27866
277.1,2023-07-30,2024-09-01,45.7778908,"GRANTSBURG 0.4 WSW, WI US",0.43,GHCND:US1WIBT0032,METERS,-92.6908672
301.4,2023-09-30,2025-10-21,45.78274,"SIREN 6.6 E, WI US",0.1952,GHCND:US1WIBT0034,METERS,-92.24264
210.0,2007-03-16,2024-07-26,46.938553,"BAYFIELD 8.8 N, WI US",0.997,GHCND:US1WIBY0001,METERS,-90.834888
235.6,2008-06-13,2012-11-02,46.832352,"BAYFIELD 1.7 NNE, WI US",0.5056,GHCND:US1WIBY0003,METERS,-90.801647
295.0,2009-03-09,2013-08-07,46.70192,"WASHBURN 5.1 WNW, WI US",0.3552,GHCND:US1WIBY0004,METERS,-90.99305
332.8,2000-07-11,2020-08-15,46.4943614,"IRON RIVER 7.2 SE, WI US",0.2103,GHCND:US1WIBY0005,METERS,-91.2969791
348.1,2013-05-09,2021-10-14,46.302639618516,"BARNES 2.2 S, WI US",0.9159,GHCND:US1WIBY0006,METERS,-91.5032024681568
332.5,2017-08-29,2025-06-30,46.69526274,"WASHBURN 4.7 WNW, WI US",0.1118,GHCND:US1WIBY0012,METERS,-90.98714483
353.9,2017-10-27,2025-11-03,46.597422,"ASHLAND 9.8 W, WI US",0.843,GHCND:US1WIBY0014,METERS,-91.078569
222.5,2017-11-30,2025-11-03,46.792947,"BAYFIELD 1.7 SW, WI US",0.9824,GHCND:US1WIBY0015,METERS,-90.843435
256.0,2019-04-21,2025-10-16,46.71829,"WASHBURN 3.7 NW, WI US",0.2539,GHCND:US1WIBY0017,METERS,-90.93851
364.5,2019-07-10,2025-09-05,46.35145,"MASON 6.9 SSE, WI US",0.5262,GHCND:US1WIBY0020,METERS,-90.98552
345.9,2019-11-30,2025-11-03,46.501984,"MASON 11.5 WNW, WI US",0.9732,GHCND:US1WIBY0022,METERS,-91.283392
310.9,2020-01-30,2025-11-01,46.5874,"ASHLAND 9.8 W, WI US",0.748,GHCND:US1WIBY0026,METERS,-91.08015
346.9,2020-11-10,2025-11-03,46.88063,"BAYFIELD 5.1 NNW, WI US",0.9588,GHCND:US1WIBY0029,METERS,-90.85854
356.6,2022-08-19,2025-11-03,46.829539,"BAYFIELD 1.2 N, WI US",0.6863,GHCND:US1WIBY0031,METERS,-90.821738
283.5,2021-03-31,2025-11-02,46.685621,"WASHBURN 0.8 N, WI US",0.9517,GHCND:US1WIBY0032,METERS,-90.895567
285.3,2020-08-02,2024-09-23,46.866747,"BAYFIELD 4.1 NNW, WI US",0.1427,GHCND:US1WIBY0033,METERS,-90.851023
297.2,2021-07-07,2022-10-25,46.610114,"ASHLAND 7.8 WNW, WI US",0.5861,GHCND:US1WIBY0035,METERS,-91.032508
243.8,2022-03-08,2025-01-17,46.8032,"BAYFIELD 2.6 WSW, WI US",0.6094,GHCND:US1WIBY0036,METERS,-90.87482
343.5,2022-03-24,2025-11-03,46.540745,"IRON RIVER 5.2 ESE, WI US",0.9235,GHCND:US1WIBY0038,METERS,-91.30428
209.1,2022-04-03,2025-11-03,46.862298,"HERBSTER 2.8 NE, WI US",0.8032,GHCND:US1WIBY0039,METERS,-91.223983
434.9,2022-03-30,2025-11-03,46.26351,"CABLE 10.2 ENE, WI US",0.5856,GHCND:US1WIBY0041,METERS,-91.094714
222.8,2022-06-13,2025-11-01,46.676,"WASHBURN 0.2 NW, WI US",0.7763,GHCND:US1WIBY0043,METERS,-90.897
343.2,2023-05-22,2025-11-03,46.4943917,"IRON RIVER 5.4 SSE, WI US",0.9967,GHCND:US1WIBY0051,METERS,-91.35727
268.8,2023-06-28,2025-11-03,46.645763,"WASHBURN 3.7 WSW, WI US",0.8721,GHCND:US1WIBY0052,METERS,-90.960052
216.4,2023-09-13,2024-09-12,46.76889,"PORT WING 1.7 ESE, WI US",0.3716,GHCND:US1WIBY0053,METERS,-91.35406
367.3,2024-04-17,2025-11-03,46.689,"WASHBURN 5.7 W, WI US",0.97,GHCND:US1WIBY0056,METERS,-91.0109
349.9,2024-04-27,2025-11-02,46.813487,"BAYFIELD 1.5 W, WI US",0.8937,GHCND:US1WIBY0057,METERS,-90.853066
283.8,2024-07-06,2025-11-03,46.6654,"WASHBURN 2.9 WSW, WI US",0.7819,GHCND:US1WIBY0059,METERS,-90.9536
262.1,2006-06-24,2025-11-03,43.31889,"COLUMBUS 1.2 S, WI US",0.6484,GHCND:US1WICB0001,METERS,-89.02678
248.7,2010-06-22,2025-11-03,43.51411,"PORTAGE 5.7 WSW, WI US",0.9825,GHCND:US1WICB0004,METERS,-89.569132
287.4,2011-09-04,2025-11-02,43.47933333,"PORTAGE 7.2 SW, WI US",0.8974,GHCND:US1WICB0005,METERS,-89.57366667
285.9,2017-11-01,2020-02-21,43.632405,"WISCONSIN DELLS 0.7 NE, WI US",0.5314,GHCND:US1WICB0008,METERS,-89.767155
241.7,2017-11-18,2020-07-16,43.412778,"POYNETTE 6.3 WNW, WI US",0.7418,GHCND:US1WICB0011,METERS,-89.530935
285.0,2018-03-14,2025-10-23,43.5648,"RANDOLPH 2.2 NNW, WI US",0.2269,GHCND:US1WICB0012,METERS,-89.02494
270.1,2021-03-18,2025-10-23,43.63432,"CAMBRIA 6.9 NNW, WI US",0.282,GHCND:US1WICB0016,METERS,-89.15971
295.4,2021-03-23,2022-06-13,43.4333,"RIO 2.4 ESE, WI US",0.6763,GHCND:US1WICB0018,METERS,-89.19506
255.4,2022-05-10,2024-11-20,43.3876947664513,"POYNETTE 0.3 SSE, WI US",0.1836,GHCND:US1WICB0020,METERS,-89.4056123987595
308.8,2022-05-03,2025-11-03,43.5891,"FRIESLAND 0.2 W, WI US",0.5566,GHCND:US1WICB0021,METERS,-89.0716
356.6,2023-03-30,2023-10-06,43.317585,"LODI 3.8 W, WI US",0.7173,GHCND:US1WICB0022,METERS,-89.60813
290.5,2024-07-06,2025-11-02,43.4255,"DOYLESTOWN 0.2 SSW, WI US",0.8227,GHCND:US1WICB0023,METERS,-89.1472
313.6,2010-08-19,2015-09-10,44.973935,"CADOTT 1.6 NNE, WI US",0.0876,GHCND:US1WICH0001,METERS,-91.141242
334.4,2012-06-08,2017-04-11,44.96839,"STANLEY 0.4 NNE, WI US",0.2629,GHCND:US1WICH0002,METERS,-90.93898
317.9,2012-06-12,2020-02-07,45.1702431589365,"CORNELL 4.1 W, WI US",0.9367,GHCND:US1WICH0003,METERS,-91.2360618263483
283.5,2016-03-30,2025-09-05,44.94741,"CHIPPEWA FALLS 1.2 NNW, WI US",0.1201,GHCND:US1WICH0005,METERS,-91.404236
299.0,2018-06-23,2025-11-02,44.9292,"CHIPPEWA FALLS 1.2 E, WI US",0.7543,GHCND:US1WICH0007,METERS,-91.3673
283.5,2019-02-14,2022-05-13,44.9848,"CHIPPEWA FALLS 4.4 NE, WI US",0.3553,GHCND:US1WICH0008,METERS,-91.3391
280.7,2019-06-03,2022-02-24,44.94212,"CHIPPEWA FALLS 0.9 NW, WI US",0.9028,GHCND:US1WICH0009,METERS,-91.40319
280.4,2019-03-24,2025-11-02,44.924528,"CHIPPEWA FALLS 0.6 SSE, WI US",0.9967,GHCND:US1WICH0010,METERS,-91.386235
282.2,2019-06-16,2025-09-29,44.92,"CHIPPEWA FALLS 3.6 ESE, WI US",0.2102,GHCND:US1WICH0011,METERS,-91.319722
362.4,2020-03-28,2021-07-27,45.12312,"JIM FALLS 5.5 NNW, WI US",0.6612,GHCND:US1WICH0013,METERS,-91.296
343.8,2020-04-02,2020-10-21,45.17347,"BLOOMER 7.9 NE, WI US",0.9408,GHCND:US1WICH0014,METERS,-91.36354
283.2,2020-06-10,2021-04-07,44.969375,"CHIPPEWA FALLS 2.6 N, WI US",0.447,GHCND:US1WICH0016,METERS,-91.387645
288.0,2021-04-06,2025-11-02,44.99905,"CHIPPEWA FALLS 5.9 NE, WI US",0.8535,GHCND:US1WICH0017,METERS,-91.316711
342.3,2021-03-30,2022-04-13,45.2736413,"NEW AUBURN 9.5 ENE, WI US",0.3842,GHCND:US1WICH0018,METERS,-91.4013857
286.8,2022-05-18,2025-10-16,45.002241,"CHIPPEWA FALLS 5.9 NE, WI US",0.4704,GHCND:US1WICH0020,METERS,-91.322559
275.2,2023-04-03,2025-11-02,44.961441,"CHIPPEWA FALLS 4.8 ENE, WI US",0.9608,GHCND:US1WICH0021,METERS,-91.30264
410.3,2019-02-11,2025-11-02,44.87209,"COLBY 5.9 WSW, WI US",0.8929,GHCND:US1WICK0003,METERS,-90.42463
346.9,2022-05-08,2025-11-01,44.77284,"GREENWOOD 0.6 NNW, WI US",0.7606,GHCND:US1WICK0007,METERS,-90.6030754
343.5,2023-04-16,2025-11-03,44.8142884,"THORP 10.1 S, WI US",0.9464,GHCND:US1WICK0010,METERS,-90.8243504
307.5,2024-03-18,2025-11-02,44.727852,"WILLARD 6.2 W, WI US",0.4168,GHCND:US1WICK0012,METERS,-90.845428
,2024-03-20,2025-11-01,44.9657556,"THORP 0.5 NNE, WI US",0.924,GHCND:US1WICK0013,,-90.7957579
338.0,2007-10-29,2021-02-16,43.264765,"GAYS MILLS 6.1 SE, WI US",0.73,GHCND:US1WICR0001,METERS,-90.755704
210.0,2016-07-21,2017-08-31,43.333422,"FERRYVILLE 1.0 SE, WI US",0.6192,GHCND:US1WICR0003,METERS,-91.069013
216.1,2018-10-26,2020-01-26,43.316701,"GAYS MILLS 0.3 SE, WI US",0.8231,GHCND:US1WICR0004,METERS,-90.84527
227.1,2020-01-27,2025-10-29,43.331156,"GAYS MILLS 1.0 NE, WI US",0.5264,GHCND:US1WICR0005,METERS,-90.836177
196.3,2020-05-04,2024-01-04,43.062801,"PRAIRIE DU CHIEN 1.4 N, WI US",0.9583,GHCND:US1WICR0006,METERS,-91.14369667
374.6,2021-04-05,2025-10-29,43.1985867,"EASTMAN 2.4 NNE, WI US",0.2702,GHCND:US1WICR0007,METERS,-91.0011017
274.9,1998-06-17,2018-07-21,44.03751,"CHILTON 0.6 NNW, WI US",0.3823,GHCND:US1WICT0001,METERS,-88.16968
241.1,2014-03-29,2025-10-07,44.1964,"MENASHA 5.4 ESE, WI US",0.6673,GHCND:US1WICT0004,METERS,-88.33075
253.6,2014-05-08,2025-11-03,44.10753,"BRILLION 4.9 S, WI US",0.1758,GHCND:US1WICT0005,METERS,-88.05289
286.8,2021-03-04,2025-11-03,44.111895,"HILBERT 5.9 WSW, WI US",0.6225,GHCND:US1WICT0009,METERS,-88.271021
240.2,2021-06-03,2021-11-03,44.209361,"MENASHA 4.0 E, WI US",0.9545,GHCND:US1WICT0010,METERS,-88.355211
243.5,2024-04-16,2025-11-03,44.2238615,"MENASHA 2.7 ENE, WI US",0.6279,GHCND:US1WICT0014,METERS,-88.3849377
281.9,2007-03-08,2021-06-18,43.102163,"MIDDLETON 0.5 E, WI US",0.1618,GHCND:US1WIDA0002,METERS,-89.496053
314.9,2007-03-29,2020-12-11,43.031735,"MADISON 5.0 SW, WI US",0.7839,GHCND:US1WIDA0003,METERS,-89.483115
304.5,2007-06-27,2010-11-08,43.064162,"MADISON 3.1 WSW, WI US",0.5004,GHCND:US1WIDA0004,METERS,-89.447365
280.1,2008-03-27,2017-05-16,43.067958,"MADISON 3.2 WSW, WI US",0.26,GHCND:US1WIDA0009,METERS,-89.449852
354.2,2008-04-12,2025-11-02,42.961584,"MOUNT HOREB 3.6 SSW, WI US",0.5529,GHCND:US1WIDA0010,METERS,-89.764159
295.7,2008-05-01,2017-08-03,43.0255,"MADISON 4.4 SSW, WI US",0.4953,GHCND:US1WIDA0011,METERS,-89.4319
285.0,2008-06-03,2025-11-03,43.0623,"MADISON 3.7 WSW, WI US",0.8755,GHCND:US1WIDA0013,METERS,-89.4565
271.3,2008-07-17,2019-07-01,43.01858,"MCFARLAND 0.8 E, WI US",0.9275,GHCND:US1WIDA0014,METERS,-89.27845
285.0,2008-08-01,2008-12-22,43.09,"MIDDLETON 0.9 SSE, WI US",0.9583,GHCND:US1WIDA0015,METERS,-89.5
276.1,2008-10-29,2010-09-24,42.92218,"EDGERTON 5.9 N, WI US",0.6063,GHCND:US1WIDA0017,METERS,-89.09248
286.2,2010-04-04,2010-12-10,43.1868,"WAUNAKEE 0.6 W, WI US",0.9841,GHCND:US1WIDA0018,METERS,-89.4637
279.8,2010-04-19,2018-08-29,43.087728,"COTTAGE GROVE 0.9 WNW, WI US",0.3869,GHCND:US1WIDA0020,METERS,-89.220395
305.4,2010-06-19,2018-10-09,43.079023,"MADISON 3.1 W, WI US",0.0616,GHCND:US1WIDA0021,METERS,-89.449785
323.1,2010-09-09,2014-07-03,42.9372,"OREGON 5.3 W, WI US",0.8924,GHCND:US1WIDA0022,METERS,-89.4853
303.9,2012-07-19,2016-08-05,42.91682,"OREGON 0.8 SSW, WI US",0.1048,GHCND:US1WIDA0025,METERS,-89.389775
355.4,2012-08-20,2013-06-15,42.998779296875,"MOUNT HOREB 1.1 SE, WI US",0.8866,GHCND:US1WIDA0026,METERS,-89.7176208496094
304.5,2013-05-18,2024-06-13,43.0533447265625,"MADISON 4.3 WSW, WI US",0.1417,GHCND:US1WIDA0027,METERS,-89.4638061523438
297.8,2013-06-05,2021-07-28,43.0494384,"MADISON 3.7 SW, WI US",0.1586,GHCND:US1WIDA0028,METERS,-89.44823
258.8,2013-06-21,2025-11-03,43.14726,"MADISON 4.8 NNW, WI US",0.3961,GHCND:US1WIDA0029,METERS,-89.406023
296.0,2013-06-23,2025-10-15,43.2317008972168,"SUN PRAIRIE 3.3 N, WI US",0.0536,GHCND:US1WIDA0030,METERS,-89.2274551391602
262.1,2013-08-25,2025-05-25,43.0595817565918,"DEERFIELD 0.6 N, WI US",0.7067,GHCND:US1WIDA0031,METERS,-89.0734100341797
307.2,2013-09-01,2015-07-31,43.041955,"MADISON 4.8 WSW, WI US",1.0,GHCND:US1WIDA0032,METERS,-89.468206
297.5,2014-01-19,2022-11-29,42.9208,"OREGON 0.4 SSW, WI US",0.9222,GHCND:US1WIDA0033,METERS,-89.3854
309.1,2014-03-19,2014-10-09,43.1918,"SUN PRAIRIE 0.7 NE, WI US",0.7854,GHCND:US1WIDA0034,METERS,-89.2224
264.6,2014-07-30,2025-11-01,43.158577,"MADISON 5.5 N, WI US",0.8043,GHCND:US1WIDA0035,METERS,-89.372826
260.3,2015-01-03,2021-01-10,43.125936,"MADISON 3.3 NNE, WI US",0.1973,GHCND:US1WIDA0037,METERS,-89.367453
367.6,2015-03-07,2017-10-15,43.009536,"MOUNT HOREB 0.5 W, WI US",0.8637,GHCND:US1WIDA0038,METERS,-89.742698
278.3,2012-08-01,2025-09-30,43.077415,"MADISON 4.0 W, WI US",0.9048,GHCND:US1WIDA0039,METERS,-89.467574
299.6,2016-09-02,2018-11-01,42.864341,"BROOKLYN 0.9 NNE, WI US",0.4425,GHCND:US1WIDA0044,METERS,-89.36206
321.6,2016-09-18,2025-11-03,43.069488,"MADISON 6.1 W, WI US",0.596,GHCND:US1WIDA0045,METERS,-89.507887
298.1,2017-03-01,2024-11-23,43.083379,"MADISON 6.4 W, WI US",0.965,GHCND:US1WIDA0046,METERS,-89.515039
313.9,2017-07-03,2025-10-28,43.031796,"VERONA 5.5 WNW, WI US",0.2305,GHCND:US1WIDA0049,METERS,-89.627926
259.7,2017-11-01,2019-01-07,43.10654,"MADISON 2.8 NE, WI US",0.5497,GHCND:US1WIDA0052,METERS,-89.34554
337.4,2017-11-19,2019-12-23,43.0424,"MADISON 6.6 WSW, WI US",0.3451,GHCND:US1WIDA0054,METERS,-89.5078
269.4,2017-12-01,2025-11-03,43.120096,"MADISON 4.4 NE, WI US",0.7865,GHCND:US1WIDA0056,METERS,-89.321093
297.5,2017-12-01,2018-05-05,43.239957,"DE FOREST 1.1 ESE, WI US",0.9551,GHCND:US1WIDA0057,METERS,-89.326151
364.8,2018-04-28,2020-08-25,42.9996,"MOUNT HOREB 0.7 S, WI US",0.3478,GHCND:US1WIDA0059,METERS,-89.7323
312.4,2018-03-10,2025-10-21,43.09292,"MIDDLETON 0.8 SSW, WI US",0.2145,GHCND:US1WIDA0060,METERS,-89.51258
303.6,2018-03-12,2025-11-02,43.19755,"WAUNAKEE 4.9 W, WI US",0.8468,GHCND:US1WIDA0062,METERS,-89.54904
355.7,2018-04-25,2025-11-03,43.04003,"MADISON 7.0 WSW, WI US",0.7836,GHCND:US1WIDA0063,METERS,-89.51438
281.9,2018-05-02,2025-10-23,43.2265,"DE FOREST 1.4 SSW, WI US",0.1274,GHCND:US1WIDA0064,METERS,-89.3528
303.3,2018-08-28,2021-09-21,43.189479,"SUN PRAIRIE 0.7 NW, WI US",0.256,GHCND:US1WIDA0066,METERS,-89.243578
271.9,2018-08-20,2025-09-04,43.134722,"MAPLE BLUFF 1.7 N, WI US",0.8193,GHCND:US1WIDA0069,METERS,-89.367165
269.4,2018-08-24,2025-11-01,43.032412,"MCFARLAND 1.3 NE, WI US",0.225,GHCND:US1WIDA0070,METERS,-89.276685
303.0,2019-03-16,2024-07-01,43.038013,"MADISON 4.0 SW, WI US",0.9282,GHCND:US1WIDA0072,METERS,-89.44355
275.8,2019-03-16,2025-11-03,43.081122,"COTTAGE GROVE 2.2 E, WI US",0.9381,GHCND:US1WIDA0075,METERS,-89.15945
295.4,2019-04-26,2025-11-03,42.972862,"VERONA 3.9 WSW, WI US",0.7441,GHCND:US1WIDA0077,METERS,-89.610417
292.9,2019-07-02,2025-10-14,43.176071,"SUN PRAIRIE 3.0 W, WI US",0.5825,GHCND:US1WIDA0078,METERS,-89.291346
271.0,2019-08-03,2023-10-24,43.063381,"MONONA 0.6 N, WI US",0.4255,GHCND:US1WIDA0079,METERS,-89.331765
287.1,2019-09-28,2020-05-26,42.917992,"OREGON 0.7 SE, WI US",0.9669,GHCND:US1WIDA0081,METERS,-89.373925
269.7,2019-11-24,2022-07-09,43.120277,"MIDDLETON 1.9 NE, WI US",0.9395,GHCND:US1WIDA0082,METERS,-89.476968
272.2,2020-04-03,2025-11-03,43.03516,"COTTAGE GROVE 3.6 SSW, WI US",0.6173,GHCND:US1WIDA0086,METERS,-89.2208
258.8,2020-04-09,2024-09-24,42.883567,"DUNKIRK 0.1 NW, WI US",0.6914,GHCND:US1WIDA0087,METERS,-89.210569
265.8,2020-03-28,2025-11-03,43.0929,"BLACK EARTH 3.1 SSE, WI US",0.9956,GHCND:US1WIDA0088,METERS,-89.72889
266.1,2020-04-20,2023-07-17,42.861828,"BELLEVILLE 0.3 W, WI US",0.2061,GHCND:US1WIDA0090,METERS,-89.542672
304.5,2020-04-29,2024-08-30,42.9887,"VERONA 1.1 W, WI US",0.3003,GHCND:US1WIDA0094,METERS,-89.5569
268.2,2020-05-29,2021-08-12,43.06902,"MONONA 1.0 NNE, WI US",0.4195,GHCND:US1WIDA0096,METERS,-89.32858
265.5,2020-07-08,2025-09-13,43.087535,"MADISON 3.7 E, WI US",0.0649,GHCND:US1WIDA0097,METERS,-89.31431
320.6,2020-09-05,2025-11-01,42.997408,"FITCHBURG 1.1 NW, WI US",0.9989,GHCND:US1WIDA0099,METERS,-89.440467
296.0,2020-10-28,2024-01-16,43.277258,"MORRISONVILLE 0.1 ENE, WI US",0.5935,GHCND:US1WIDA0100,METERS,-89.355071
257.9,2021-01-10,2023-03-12,43.092551,"MADISON 3.2 ENE, WI US",0.8232,GHCND:US1WIDA0101,METERS,-89.327584
304.5,2021-04-01,2025-11-02,43.008321,"MADISON 7.9 SW, WI US",0.1562,GHCND:US1WIDA0111,METERS,-89.510726
285.3,2021-04-26,2025-11-02,43.077179,"MADISON 4.0 W, WI US",0.7591,GHCND:US1WIDA0116,METERS,-89.46619
265.2,2021-05-04,2025-10-19,43.035920145784,"MADISON 5.9 ESE, WI US",0.1577,GHCND:US1WIDA0117,METERS,-89.2883605786822
318.5,2021-05-19,2025-10-18,43.020601,"FITCHBURG 3.6 NW, WI US",0.2045,GHCND:US1WIDA0118,METERS,-89.479119
307.5,2021-06-24,2025-11-03,43.189414,"WAUNAKEE 2.6 W, WI US",0.9103,GHCND:US1WIDA0120,METERS,-89.50272
281.9,2021-09-04,2025-11-02,43.218271,"WINDSOR 0.3 ENE, WI US",0.9408,GHCND:US1WIDA0122,METERS,-89.335496
275.8,2021-09-10,2023-05-12,43.065617,"MADISON 1.8 WSW, WI US",0.8213,GHCND:US1WIDA0123,METERS,-89.418065
321.9,2022-03-30,2025-09-23,42.978074,"VERONA 4.1 W, WI US",0.1931,GHCND:US1WIDA0124,METERS,-89.615167
291.1,2022-03-23,2025-09-23,43.240201,"DE FOREST 0.7 SW, WI US",0.2436,GHCND:US1WIDA0125,METERS,-89.356816
264.3,2022-04-17,2025-11-03,43.156434,"MADISON 5.4 N, WI US",0.8921,GHCND:US1WIDA0127,METERS,-89.372499
285.6,2022-03-23,2025-11-03,43.190388,"WAUNAKEE 0.7 WNW, WI US",0.9002,GHCND:US1WIDA0129,METERS,-89.465217
273.4,2022-04-24,2023-07-31,43.107382,"CROSS PLAINS 0.5 SSW, WI US",0.5668,GHCND:US1WIDA0131,METERS,-89.650796
265.5,2022-04-09,2025-11-03,43.07736,"MADISON 3.2 E, WI US",0.9831,GHCND:US1WIDA0132,METERS,-89.32356
289.6,2022-07-28,2025-11-03,43.17407,"SUN PRAIRIE 1.8 ESE, WI US",0.7004,GHCND:US1WIDA0133,METERS,-89.19861
269.1,2022-08-04,2025-11-03,43.077071,"SHOREWOOD HILLS 0.1 SE, WI US",0.8401,GHCND:US1WIDA0134,METERS,-89.445849
299.0,2022-11-30,2025-11-03,42.93367,"OREGON 1.4 WNW, WI US",0.943,GHCND:US1WIDA0135,METERS,-89.408062
279.2,2023-03-19,2025-09-22,43.1356106,"MADISON 4.0 NNE, WI US",0.3112,GHCND:US1WIDA0139,METERS,-89.3635219
340.8,2023-04-09,2025-10-25,43.0481,"VERONA 4.2 NNW, WI US",0.6606,GHCND:US1WIDA0140,METERS,-89.5536
295.7,2023-04-03,2025-11-03,43.186576,"SUN PRAIRIE 2.2 W, WI US",0.5021,GHCND:US1WIDA0144,METERS,-89.275985
289.9,2023-06-25,2023-10-30,43.23607,"DEFOREST 0.7 S, WI US",0.9531,GHCND:US1WIDA0146,METERS,-89.34621
347.5,2023-07-06,2025-10-22,42.99638,"MOUNT HOREB 1.0 SSW, WI US",0.2476,GHCND:US1WIDA0147,METERS,-89.74465
261.5,2023-12-19,2024-10-01,43.124347151585,"MADISON 3.3 NNE, WI US",0.7847,GHCND:US1WIDA0154,METERS,-89.366737093542
277.1,2023-12-19,2025-11-02,43.2687,"COLUMBUS 4.6 S, WI US",0.6277,GHCND:US1WIDA0155,METERS,-89.0297
289.6,2024-03-13,2025-11-03,43.078143,"MADISON 3.9 W, WI US",0.8785,GHCND:US1WIDA0158,METERS,-89.464872
273.1,2024-04-01,2025-10-30,43.0684724674514,"MADISON 1.7 WSW, WI US",0.5173,GHCND:US1WIDA0160,METERS,-89.4165112783686
260.9,2024-03-25,2025-11-03,43.108982,"MIDDLETON 2.0 ENE, WI US",0.8031,GHCND:US1WIDA0162,METERS,-89.46817
319.1,2024-04-08,2024-11-16,43.010507,"MADISON 7.1 SW, WI US",0.7892,GHCND:US1WIDA0166,METERS,-89.490068
333.5,2024-05-29,2025-11-03,43.0415039,"VERONA 3.6 N, WI US",0.771,GHCND:US1WIDA0170,METERS,-89.539917
330.1,2024-04-15,2025-10-26,43.0734,"MIDDLETON 2.5 SW, WI US",0.9232,GHCND:US1WIDA0171,METERS,-89.5348
267.9,2024-04-25,2025-11-03,42.997351,"CAMBRIDGE 0.9 SW, WI US",0.8208,GHCND:US1WIDA0173,METERS,-89.030946
319.7,2024-06-04,2025-11-03,43.0482,"VERONA 4.4 NNW, WI US",0.9749,GHCND:US1WIDA0175,METERS,-89.5666
307.8,2024-05-04,2025-11-03,43.1926,"SUN PRAIRIE 0.9 NE, WI US",0.8889,GHCND:US1WIDA0176,METERS,-89.2197
288.3,2024-05-14,2025-11-03,43.12409,"CROSS PLAINS 0.8 NNE, WI US",0.9907,GHCND:US1WIDA0179,METERS,-89.64019
292.0,2024-07-02,2025-11-03,43.066888,"MADISON 2.1 WSW, WI US",0.8551,GHCND:US1WIDA0184,METERS,-89.425531
291.1,2024-07-07,2025-11-03,43.21033,"DE FOREST 3.3 SE, WI US",1.0,GHCND:US1WIDA0185,METERS,-89.30274
286.5,2024-07-09,2025-11-03,43.2447,"DEFOREST 0.2 WSW, WI US",0.9896,GHCND:US1WIDA0186,METERS,-89.34912
306.9,1998-06-17,2025-10-21,43.4514,"HORICON 2.1 ENE, WI US",0.3629,GHCND:US1WIDD0003,METERS,-88.5956
265.5,2013-06-14,2025-10-26,43.4471840411425,"BEAVER DAM 1.4 SSW, WI US",0.6822,GHCND:US1WIDD0004,METERS,-88.8526240736246
307.5,2015-10-12,2025-11-01,43.492015,"THERESA 3.1 SE, WI US",0.4496,GHCND:US1WIDD0005,METERS,-88.401658
306.6,2016-03-10,2025-11-03,43.511357,"THERESA 0.5 SSW, WI US",0.9594,GHCND:US1WIDD0006,METERS,-88.455788
292.0,2019-04-19,2025-11-03,43.516916,"THERESA 0.1 ESE, WI US",0.949,GHCND:US1WIDD0014,METERS,-88.450262
276.5,1998-06-17,2025-11-03,43.35742,"COLUMBUS 4.8 ENE, WI US",0.2242,GHCND:US1WIDD0015,METERS,-88.938192
279.8,2020-03-19,2025-11-03,43.575776,"FOX LAKE 2.3 WNW, WI US",0.9319,GHCND:US1WIDD0017,METERS,-88.95583
317.9,2020-04-20,2025-10-25,43.56725,"MAYVILLE 4.9 NNW, WI US",0.6864,GHCND:US1WIDD0018,METERS,-88.57142
268.8,2020-06-01,2024-08-02,43.20276,"IXONIA 5.0 NE, WI US",0.5223,GHCND:US1WIDD0019,METERS,-88.537803
281.3,2020-05-18,2025-10-26,43.4595,"BEAVER DAM 3.9 E, WI US",0.8194,GHCND:US1WIDD0020,METERS,-88.7593
267.9,2020-06-15,2022-07-24,43.445836,"BEAVER DAM 2.1 SW, WI US",0.9481,GHCND:US1WIDD0021,METERS,-88.870262
256.3,2020-07-28,2025-11-03,43.206673,"WATERTOWN 1.2 NNE, WI US",0.986,GHCND:US1WIDD0022,METERS,-88.714493
284.4,2021-04-06,2025-05-21,43.524217,"RANDOLPH 1.2 SE, WI US",0.1035,GHCND:US1WIDD0026,METERS,-88.9865517933
317.3,2021-06-01,2025-11-03,43.627919,"BROWNSVILLE 1.0 NNW, WI US",1.0,GHCND:US1WIDD0027,METERS,-88.501112
297.5,2005-01-16,2025-11-01,43.502261,"MAYVILLE 0.5 NE, WI US",0.0242,GHCND:US1WIDD0029,METERS,-88.538631
288.0,2020-10-18,2025-11-03,43.585316,"FOX LAKE 3.2 ENE, WI US",0.3603,GHCND:US1WIDD0030,METERS,-88.85668
337.4,2023-03-18,2025-10-26,43.403007,"IRON RIDGE 4.6 ENE, WI US",0.6656,GHCND:US1WIDD0031,METERS,-88.439598
247.8,2023-09-15,2024-09-30,43.204029,"WATERTOWN 0.9 N, WI US",0.966,GHCND:US1WIDD0033,METERS,-88.721871
272.5,2024-03-14,2025-11-03,43.427794,"HORICON 2.7 ESE, WI US",0.98,GHCND:US1WIDD0035,METERS,-88.58905
215.8,2010-09-29,2018-09-24,46.6488159,"SUPERIOR 7.2 WSW, WI US",0.4147,GHCND:US1WIDG0011,METERS,-92.194433
190.5,2015-01-03,2025-07-24,46.718387,"SUPERIOR 1.5 NNW, WI US",0.0446,GHCND:US1WIDG0013,METERS,-92.066056
362.1,2016-04-20,2025-11-03,46.480632,"POPLAR 7.8 SSW, WI US",0.4336,GHCND:US1WIDG0014,METERS,-91.860068
369.4,2016-04-14,2025-11-03,46.482551,"SUPERIOR 14.8 S, WI US",0.9049,GHCND:US1WIDG0015,METERS,-92.070118
324.3,2016-12-02,2025-11-03,46.5839,"POPLAR 2.0 E, WI US",0.9405,GHCND:US1WIDG0016,METERS,-91.7462
195.4,2021-04-06,2025-11-03,46.7087,"SUPERIOR 3.7 WNW, WI US",0.9623,GHCND:US1WIDG0018,METERS,-92.1368
348.4,2018-06-12,2025-11-03,46.352175,"SOLON SPRINGS 1.2 W, WI US",0.9978,GHCND:US1WIDG0020,METERS,-91.844054
384.0,2019-03-27,2025-11-03,46.36804,"SOLON SPRINGS 8.1 W, WI US",0.6243,GHCND:US1WIDG0023,METERS,-91.986882
283.2,2019-09-30,2024-11-19,46.537009,"FOXBORO 7.7 ENE, WI US",0.0756,GHCND:US1WIDG0024,METERS,-92.134646
370.6,2019-06-23,2020-10-18,46.480473,"SUPERIOR 15.0 S, WI US",0.3616,GHCND:US1WIDG0027,METERS,-92.071563
194.5,2020-04-22,2025-10-17,46.70667,"SUPERIOR 4.3 W, WI US",0.7985,GHCND:US1WIDG0029,METERS,-92.14861
196.3,2021-01-15,2025-11-03,46.709431,"SUPERIOR 2.0 WNW, WI US",0.8073,GHCND:US1WIDG0030,METERS,-92.097511
346.9,2021-03-17,2025-07-24,46.2424,"GORDON 1.1 WSW, WI US",0.4513,GHCND:US1WIDG0034,METERS,-91.8196
194.5,2002-10-08,2025-11-02,46.688336,"SUPERIOR 1.7 ESE, WI US",0.1878,GHCND:US1WIDG0035,METERS,-92.025416
370.0,2021-04-20,2022-09-26,46.470671,"SUPERIOR 15.7 S, WI US",0.4533,GHCND:US1WIDG0036,METERS,-92.041644
358.7,2022-05-01,2025-11-01,46.2874407,"GORDON 10.2 ENE, WI US",0.2381,GHCND:US1WIDG0037,METERS,-91.5933092
276.1,2022-07-04,2025-09-07,46.605,"POPLAR 1.7 NNW, WI US",0.1979,GHCND:US1WIDG0039,METERS,-91.79997
365.2,2022-03-18,2025-11-03,46.48377,"POPLAR 7.4 SSW, WI US",0.4062,GHCND:US1WIDG0043,METERS,-91.84848
347.5,2022-04-13,2025-11-03,46.59517,"MAPLE 1.0 ENE, WI US",0.9439,GHCND:US1WIDG0048,METERS,-91.7001803
292.3,2023-03-24,2024-11-17,46.593571,"POPLAR 3.5 WNW, WI US",0.838,GHCND:US1WIDG0051,METERS,-91.859918
357.2,2023-06-29,2024-10-30,46.5119,"SUPERIOR 12.8 S, WI US",0.2327,GHCND:US1WIDG0056,METERS,-92.0675
339.9,2023-04-28,2025-10-29,46.34684,"SOLON SPRINGS 0.6 WSW, WI US",0.2544,GHCND:US1WIDG0057,METERS,-91.83134
188.7,2023-04-22,2025-11-02,46.707188,"SUPERIOR 0.8 NNE, WI US",0.5313,GHCND:US1WIDG0058,METERS,-92.051117
197.2,2023-07-01,2025-11-02,46.66713,"SUPERIOR 2.3 SSW, WI US",0.9673,GHCND:US1WIDG0059,METERS,-92.080956
210.6,2023-04-09,2024-03-12,46.6685,"SUPERIOR 7.0 ESE, WI US",0.8142,GHCND:US1WIDG0060,METERS,-91.9174
277.1,2023-05-05,2025-11-03,46.6224,"MAPLE 2.4 NNE, WI US",0.5777,GHCND:US1WIDG0061,METERS,-91.70533
319.7,2024-03-05,2025-11-03,46.554554,"BRULE 0.1 NE, WI US",0.9869,GHCND:US1WIDG0064,METERS,-91.574753
317.9,2024-04-17,2025-10-31,46.342853,"SOLON SPRINGS 0.5 SSE, WI US",0.6394,GHCND:US1WIDG0065,METERS,-91.815766
234.1,2007-07-13,2012-10-25,43.76747,"FOND DU LAC 1.0 WSW, WI US",0.6936,GHCND:US1WIDL0001,METERS,-88.46442
289.0,2014-05-07,2022-08-14,43.817011,"MOUNT CALVARY 1.6 WSW, WI US",0.1764,GHCND:US1WIDL0005,METERS,-88.275863
235.3,2016-06-13,2020-02-18,43.762718,"FOND DU LAC 0.8 SSW, WI US",0.1627,GHCND:US1WIDL0009,METERS,-88.449376
271.0,1998-06-17,2018-12-12,43.63373,"WAUPUN 0.2 NNE, WI US",0.0257,GHCND:US1WIDL0012,METERS,-88.73413
239.0,2020-07-10,2025-11-03,43.772137,"FOND DU LAC 1.7 E, WI US",0.8924,GHCND:US1WIDL0017,METERS,-88.411337
278.0,2020-08-28,2025-11-03,43.79206533,"ELDORADO 2.3 S, WI US",0.9678,GHCND:US1WIDL0018,METERS,-88.6165575
301.1,2021-03-28,2025-10-19,43.7060155,"BRANDON 3.0 SW, WI US",0.1326,GHCND:US1WIDL0019,METERS,-88.826014
304.2,2021-04-01,2025-11-03,43.815485,"RIPON 2.1 S, WI US",0.6043,GHCND:US1WIDL0023,METERS,-88.8351983
286.2,2019-11-22,2025-11-02,43.674246,"WAUPUN 3.1 NNW, WI US",0.3208,GHCND:US1WIDL0026,METERS,-88.754668
234.7,2023-04-16,2024-11-22,43.78715,"FOND DU LAC 1.2 NE, WI US",0.1959,GHCND:US1WIDL0028,METERS,-88.43209
269.1,2023-04-16,2025-11-03,43.775724,"FOND DU LAC 5.4 W, WI US",0.2251,GHCND:US1WIDL0029,METERS,-88.553714
286.2,2022-06-12,2025-11-03,43.6791424,"WAUPUN 3.3 N, WI US",0.3473,GHCND:US1WIDL0034,METERS,-88.7286364
242.9,2024-05-18,2025-10-31,43.762347,"FOND DU LAC 1.5 ESE, WI US",0.7857,GHCND:US1WIDL0035,METERS,-88.420056
324.3,2008-04-11,2023-04-28,45.089126,"BOYCEVILLE 3.3 N, WI US",0.8597,GHCND:US1WIDN0001,METERS,-92.027593
297.2,2009-03-31,2015-07-24,45.10902,"DOWNING 4.4 NNE, WI US",0.1907,GHCND:US1WIDN0002,METERS,-92.095537
274.3,2009-03-24,2025-10-30,44.875464,"MENOMONIE 0.9 SSE, WI US",0.2956,GHCND:US1WIDN0003,METERS,-91.910336
296.9,2012-08-01,2025-11-02,44.886268,"ELK MOUND 1.3 NE, WI US",0.8879,GHCND:US1WIDN0005,METERS,-91.666764
265.2,2014-06-11,2021-07-07,44.8216136544943,"EAU CLAIRE 7.8 W, WI US",0.06,GHCND:US1WIDN0007,METERS,-91.6519457101822
253.0,2015-04-02,2025-11-03,44.7638,"MENOMONIE 10.2 SSE, WI US",0.6201,GHCND:US1WIDN0009,METERS,-91.80041667
278.3,2016-03-13,2025-11-03,44.944373,"MENOMONIE 6.5 NW, WI US",0.9676,GHCND:US1WIDN0010,METERS,-92.02012
267.0,2017-09-06,2021-09-19,44.8976789,"MENOMONIE 0.9 NW, WI US",0.5492,GHCND:US1WIDN0012,METERS,-91.925286
306.0,2019-03-02,2020-10-18,44.99978,"BOYCEVILLE 5.8 ESE, WI US",0.5629,GHCND:US1WIDN0013,METERS,-91.93664
268.8,2019-05-01,2025-09-21,44.88005,"MENOMONIE 0.6 S, WI US",0.2127,GHCND:US1WIDN0014,METERS,-91.9161
267.0,2019-03-29,2025-11-01,44.898323,"MENOMONIE 0.9 NW, WI US",0.8129,GHCND:US1WIDN0015,METERS,-91.923988
288.0,2020-03-31,2025-11-03,45.00098,"COLFAX 0.4 NE, WI US",0.8478,GHCND:US1WIDN0016,METERS,-91.720596
296.0,2020-06-01,2025-11-01,44.8563,"MENOMONIE 3.3 SE, WI US",0.9636,GHCND:US1WIDN0017,METERS,-91.8635
355.4,2021-04-06,2025-10-23,45.0239634,"DOWNING 2.1 SE, WI US",0.5162,GHCND:US1WIDN0019,METERS,-92.0974011
281.0,2021-10-08,2024-09-03,44.881554,"ELK MOUND 1.5 WNW, WI US",0.2486,GHCND:US1WIDN0021,METERS,-91.716538
357.2,2024-04-08,2025-11-02,45.010393,"DOWNING 3.3 SE, WI US",0.4495,GHCND:US1WIDN0024,METERS,-92.082093
200.9,2013-06-24,2018-01-22,45.009325,"BAILEYS HARBOR 4.5 SSW, WI US",0.5902,GHCND:US1WIDR0001,METERS,-87.172376
198.4,2014-05-06,2024-04-04,45.2575,"ELLISON BAY 2.2 E, WI US",0.7612,GHCND:US1WIDR0005,METERS,-87.0267
213.4,2014-10-01,2025-10-30,45.202965,"SISTER BAY 1.3 NNE, WI US",0.8785,GHCND:US1WIDR0006,METERS,-87.11326
215.2,2015-04-20,2019-11-27,44.835573,"STURGEON BAY 2.6 WNW, WI US",0.9127,GHCND:US1WIDR0007,METERS,-87.417367
187.5,2015-06-27,2025-10-21,45.1267471313477,"FISH CREEK 0.1 SSE, WI US",0.1011,GHCND:US1WIDR0008,METERS,-87.2464141845703
219.2,2015-08-20,2025-11-03,44.7843,"BRUSSELS 3.3 N, WI US",0.8681,GHCND:US1WIDR0009,METERS,-87.619
240.5,2015-11-10,2019-11-10,44.964046,"EGG HARBOR 6.1 SSW, WI US",0.857,GHCND:US1WIDR0010,METERS,-87.339592
199.6,2017-11-01,2022-11-05,45.09322,"BAILEYS HARBOR 3.2 NE, WI US",0.923,GHCND:US1WIDR0011,METERS,-87.07386
189.9,2018-04-03,2019-12-31,45.074167,"BAILEYS HARBOR 2.3 WNW, WI US",0.5345,GHCND:US1WIDR0012,METERS,-87.169722
180.1,2021-05-23,2025-11-03,45.25399,"ELLISON BAY 0.0 SE, WI US",0.5523,GHCND:US1WIDR0015,METERS,-87.07058
248.4,2022-03-25,2025-11-03,44.99686,"EGG HARBOR 3.7 SSE, WI US",0.7735,GHCND:US1WIDR0016,METERS,-87.261227
232.6,2022-04-20,2025-10-31,44.99127,"EGG HARBOR 4.6 SW, WI US",0.292,GHCND:US1WIDR0018,METERS,-87.346617
189.6,2023-03-11,2025-11-02,45.2975903,"ELLISON BAY 4.7 NE, WI US",0.9256,GHCND:US1WIDR0019,METERS,-86.9937831
196.9,2023-07-05,2025-05-02,45.12659,"BAILEYS HARBOR 4.3 N, WI US",0.1751,GHCND:US1WIDR0020,METERS,-87.13882
181.1,2023-04-13,2025-03-05,45.29117,"ELLISON BAY 3.6 NE, WI US",0.8009,GHCND:US1WIDR0021,METERS,-87.02031
208.5,2024-05-27,2025-10-27,45.1155,"EPHRAIM 2.9 S, WI US",0.3931,GHCND:US1WIDR0023,METERS,-87.17298
231.0,2024-05-31,2025-11-02,45.06007,"EGG HARBOR 2.4 ENE, WI US",0.856,GHCND:US1WIDR0024,METERS,-87.24702
183.2,2024-06-07,2025-11-02,44.932171,"STURGEON BAY 7.7 N, WI US",0.7432,GHCND:US1WIDR0025,METERS,-87.393634
188.7,2024-06-07,2025-11-03,44.9935,"BAILEYS HARBOR 5.4 SSW, WI US",0.6816,GHCND:US1WIDR0026,METERS,-87.17265
211.8,2024-06-15,2025-10-29,45.283237,"ELLISON BAY 2.1 NNE, WI US",0.7629,GHCND:US1WIDR0027,METERS,-87.057019
197.2,2024-06-15,2025-11-03,45.285283,"ELLISON BAY 2.1 N, WI US",0.4063,GHCND:US1WIDR0028,METERS,-87.069724
181.1,2024-06-23,2025-10-01,45.1563887,"EPHRAIM 0.2 WSW, WI US",0.6524,GHCND:US1WIDR0029,METERS,-87.1701406
206.7,2024-07-03,2025-11-03,45.082876,"FISH CREEK 5.0 SE, WI US",0.5746,GHCND:US1WIDR0030,METERS,-87.165671
278.3,2008-04-18,2011-06-21,44.722271,"EAU CLAIRE 7.2 SSE, WI US",0.1121,GHCND:US1WIEC0002,METERS,-91.44627
271.6,2010-08-04,2025-10-19,44.8172,"EAU CLAIRE 2.8 W, WI US",0.3053,GHCND:US1WIEC0004,METERS,-91.55
273.1,2016-06-27,2025-11-03,44.80128,"ALTOONA 0.4 SW, WI US",0.6169,GHCND:US1WIEC0005,METERS,-91.44819
264.3,2013-05-11,2014-01-03,44.8135516047478,"EAU CLAIRE 0.9 SE, WI US",0.5462,GHCND:US1WIEC0009,METERS,-91.4772232621908
266.1,2014-03-12,2020-12-24,44.776494,"EAU CLAIRE 3.1 S, WI US",0.4069,GHCND:US1WIEC0012,METERS,-91.503159
270.7,2015-03-01,2025-11-01,44.8251615464687,"EAU CLAIRE 3.0 W, WI US",0.5855,GHCND:US1WIEC0014,METERS,-91.552307009697
285.9,2016-03-24,2025-11-03,44.73492,"AUGUSTA 4.5 NNW, WI US",0.8813,GHCND:US1WIEC0016,METERS,-91.16583
294.1,2017-10-31,2022-12-16,44.82657,"EAU CLAIRE 2.3 W, WI US",0.0934,GHCND:US1WIEC0018,METERS,-91.53788
275.2,2019-04-28,2025-11-03,44.768583,"EAU CLAIRE 3.7 S, WI US",0.8573,GHCND:US1WIEC0023,METERS,-91.498988
319.7,2020-03-27,2025-11-03,44.753,"EAU CLAIRE 5.4 SSE, WI US",0.9956,GHCND:US1WIEC0025,METERS,-91.4383
242.6,2020-05-14,2025-11-03,44.809924,"EAU CLAIRE 1.0 SW, WI US",0.811,GHCND:US1WIEC0026,METERS,-91.505787
326.1,2020-06-13,2025-11-03,44.6153725,"ELEVA 2.8 NNW, WI US",0.9924,GHCND:US1WIEC0028,METERS,-91.48400167
277.7,2021-04-19,2025-11-03,44.826099,"EAU CLAIRE 2.3 W, WI US",0.9753,GHCND:US1WIEC0031,METERS,-91.537781
306.0,2021-03-21,2025-09-27,44.747687,"EAU CLAIRE 5.6 SSE, WI US",0.408,GHCND:US1WIEC0033,METERS,-91.44597
278.9,2022-06-21,2025-09-06,44.839456,"EAU CLAIRE 2.1 NE, WI US",0.4199,GHCND:US1WIEC0037,METERS,-91.457876
280.4,2023-04-17,2025-11-03,44.7114,"EAU CLAIRE 7.8 SSE, WI US",0.9635,GHCND:US1WIEC0038,METERS,-91.4578
338.9,2024-04-07,2025-11-03,44.64038,"ELEVA 5.3 NW, WI US",0.9045,GHCND:US1WIEC0041,METERS,-91.53055
364.8,2007-06-27,2010-02-15,45.892293,"NIAGARA 10.3 NW, WI US",0.3026,GHCND:US1WIFL0002,METERS,-88.144724
393.2,2014-06-11,2019-12-29,45.9176,"FLORENCE 0.7 ESE, WI US",0.7825,GHCND:US1WIFL0003,METERS,-88.23899
370.9,2014-09-05,2025-11-03,45.893694,"FLORENCE 5.6 ESE, WI US",0.9703,GHCND:US1WIFL0004,METERS,-88.141509
473.0,2007-04-22,2007-09-01,45.380011,"CRANDON 13.1 S, WI US",0.8497,GHCND:US1WIFR0001,METERS,-88.905095
491.0,2007-06-17,2010-09-24,45.4366,"CRANDON 12.6 SE, WI US",0.1622,GHCND:US1WIFR0002,METERS,-88.719
497.1,2011-04-14,2015-02-27,45.574004,"CRANDON 0.3 N, WI US",0.9089,GHCND:US1WIFR0003,METERS,-88.898267
482.2,2022-04-17,2022-11-02,45.55606,"LAONA 1.4 WSW, WI US",0.67,GHCND:US1WIFR0006,METERS,-88.69926
235.6,2010-07-26,2013-03-30,43.9757,"BERLIN 0.4 NNE, WI US",0.9101,GHCND:US1WIGL0001,METERS,-88.9476
290.8,2015-06-26,2025-11-03,43.820709,"PRINCETON 3.4 SE, WI US",0.8089,GHCND:US1WIGL0002,METERS,-89.076567
279.8,2016-04-28,2025-11-03,43.764678,"MARKESAN 4.1 NNW, WI US",0.9198,GHCND:US1WIGL0003,METERS,-89.020729
271.0,2018-03-18,2025-11-03,43.843693,"GREEN LAKE 0.8 E, WI US",0.9763,GHCND:US1WIGL0004,METERS,-88.940666
266.1,2007-04-02,2025-10-27,42.848929,"BELLEVILLE 1.7 ESE, WI US",0.4882,GHCND:US1WIGN0001,METERS,-89.506845
269.7,2015-04-02,2023-01-15,42.7199,"MONTICELLO 2.2 SE, WI US",0.9325,GHCND:US1WIGN0005,METERS,-89.5636
240.5,2019-03-20,2020-08-11,42.62658,"BRODHEAD 0.7 NNW, WI US",0.6693,GHCND:US1WIGN0008,METERS,-89.38124
274.9,2020-05-11,2025-04-04,42.836304,"NEW GLARUS 1.9 NNW, WI US",0.9095,GHCND:US1WIGN0009,METERS,-89.653526
332.8,2021-03-09,2025-11-02,42.791,"BLANCHARDVILLE 5.4 ESE, WI US",0.9794,GHCND:US1WIGN0011,METERS,-89.7577
310.6,2021-10-21,2025-11-02,42.651842,"MONROE 5.1 NE, WI US",0.7449,GHCND:US1WIGN0016,METERS,-89.5738205
272.5,2022-04-19,2023-09-22,42.812972,"NEW GLARUS 0.1 W, WI US",0.6935,GHCND:US1WIGN0017,METERS,-89.636586
283.5,2022-04-21,2025-11-03,42.59846,"JUDA 1.3 WNW, WI US",0.9691,GHCND:US1WIGN0018,METERS,-89.52666
249.9,2024-04-09,2025-11-03,42.6837,"ALBANY 1.7 SSW, WI US",0.9146,GHCND:US1WIGN0022,METERS,-89.44568
330.7,2024-07-05,2025-11-03,42.59583,"MONROE 0.4 SE, WI US",0.9959,GHCND:US1WIGN0023,METERS,-89.63782
310.0,2008-04-30,2015-12-14,42.853198,"LANCASTER 0.3 N, WI US",0.6987,GHCND:US1WIGT0001,METERS,-90.708635
302.4,2015-11-07,2022-12-15,42.7382047,"PLATTEVILLE 0.3 NE, WI US",0.4935,GHCND:US1WIGT0002,METERS,-90.4726704
306.6,2017-11-13,2020-01-17,42.60796,"CUBA CITY 0.4 NNE, WI US",0.9045,GHCND:US1WIGT0003,METERS,-90.42881
209.1,2018-08-28,2025-11-02,43.184837,"MUSCODA 0.5 WSW, WI US",0.9863,GHCND:US1WIGT0006,METERS,-90.44318
281.3,2020-03-07,2025-11-03,42.749496,"CASSVILLE 7.8 ENE, WI US",1.0,GHCND:US1WIGT0009,METERS,-90.843909
340.2,2021-03-24,2025-10-29,42.94201,"BLOOMINGTON 3.5 N, WI US",0.2356,GHCND:US1WIGT0011,METERS,-90.92334
326.7,2021-03-23,2025-10-31,42.9402,"PATCH GROVE 0.1 NNW, WI US",0.9442,GHCND:US1WIGT0013,METERS,-90.9735
287.1,2022-03-07,2025-11-02,42.6244729,"DICKEYVILLE 0.1 SW, WI US",0.6066,GHCND:US1WIGT0015,METERS,-90.5935293
316.7,2022-03-13,2025-11-03,42.74804,"PLATTEVILLE 1.1 NE, WI US",0.72,GHCND:US1WIGT0016,METERS,-90.46361
342.3,2023-07-01,2025-10-31,42.954398,"PRAIRIE DU CHIEN 9.9 SE, WI US",0.6487,GHCND:US1WIGT0018,METERS,-90.985813
339.5,2024-03-31,2025-11-01,42.9058161,"STITZER 1.8 SE, WI US",0.9346,GHCND:US1WIGT0020,METERS,-90.5994767
490.7,1998-06-17,2025-11-02,46.14749,"MERCER 2.0 SE, WI US",0.214,GHCND:US1WIIR0002,METERS,-90.03097
499.0,2018-03-11,2025-11-03,46.41555,"PENCE 0.1 E, WI US",0.7653,GHCND:US1WIIR0003,METERS,-90.27013
493.8,2019-04-08,2025-11-03,46.26677,"MERCER 7.0 NNE, WI US",0.8551,GHCND:US1WIIR0004,METERS,-90.0336
491.9,2021-04-10,2025-11-03,46.171913,"MERCER 0.4 N, WI US",0.6154,GHCND:US1WIIR0005,METERS,-90.062461
475.5,2021-05-19,2025-11-03,46.388,"HURLEY 4.1 SSE, WI US",0.9104,GHCND:US1WIIR0006,METERS,-90.1696
308.2,2004-10-05,2025-11-02,46.49528,"SAXON 3.8 W, WI US",0.1296,GHCND:US1WIIR0008,METERS,-90.49389
454.8,2023-02-05,2025-11-01,46.4548,"HURLEY 1.0 NE, WI US",0.5255,GHCND:US1WIIR0009,METERS,-90.1814
493.5,2024-04-18,2025-06-08,46.14755,"MERCER 1.8 SE, WI US",0.283,GHCND:US1WIIR0012,METERS,-90.03806
304.5,2015-11-17,2025-11-03,42.914,"MINERAL POINT 7.3 ENE, WI US",0.9915,GHCND:US1WIIW0003,METERS,-90.057
307.8,2018-05-08,2022-04-06,42.982299,"RIDGEWAY 1.6 SE, WI US",0.2266,GHCND:US1WIIW0005,METERS,-89.969692
359.4,2019-03-20,2019-09-24,42.959224,"DODGEVILLE 0.4 SE, WI US",0.7937,GHCND:US1WIIW0006,METERS,-90.12391
372.5,2019-04-25,2025-11-03,42.99414,"DODGEVILLE 2.7 NE, WI US",0.9023,GHCND:US1WIIW0007,METERS,-90.09488
224.3,2021-04-05,2025-11-03,43.163972,"ARENA 0.1 WNW, WI US",0.8811,GHCND:US1WIIW0013,METERS,-89.91589
349.0,2021-09-21,2025-10-10,43.04136,"DODGEVILLE 6.2 NNE, WI US",0.5672,GHCND:US1WIIW0014,METERS,-90.0702
385.0,2023-05-15,2025-10-22,42.9627,"DODGEVILLE 0.4 WSW, WI US",0.5673,GHCND:US1WIIW0015,METERS,-90.1374
253.0,2007-03-07,2025-11-02,43.179,"WATERTOWN 1.6 ESE, WI US",0.4761,GHCND:US1WIJF0002,METERS,-88.697542
260.9,2007-05-01,2013-10-01,43.089135,"LAKE MILLS 3.6 WNW, WI US",1.0,GHCND:US1WIJF0003,METERS,-88.976506
247.8,2007-04-30,2013-05-03,43.176111,"WATERTOWN 1.1 S, WI US",0.5328,GHCND:US1WIJF0004,METERS,-88.728611
256.9,2008-04-21,2019-02-05,42.847987,"WHITEWATER 1.3 NW, WI US",0.7015,GHCND:US1WIJF0005,METERS,-88.754151
261.5,2014-04-03,2025-11-03,42.900836,"PALMYRA 1.5 N, WI US",0.8715,GHCND:US1WIJF0010,METERS,-88.586179
269.7,2014-07-10,2025-11-02,43.11555556,"JOHNSON CREEK 3.2 NW, WI US",0.887,GHCND:US1WIJF0011,METERS,-88.81277778
243.5,2017-03-10,2025-11-02,42.9230766296387,"FORT ATKINSON 0.3 SSE, WI US",0.4263,GHCND:US1WIJF0013,METERS,-88.8400268554688
249.0,2017-07-07,2024-04-03,42.85656,"PALMYRA 1.9 SW, WI US",0.2176,GHCND:US1WIJF0015,METERS,-88.60881
245.4,2017-05-24,2018-08-27,42.925514,"FORT ATKINSON 0.1 SE, WI US",0.3449,GHCND:US1WIJF0016,METERS,-88.839459
262.4,2018-03-21,2025-11-03,43.045594,"JOHNSON CREEK 2.7 SSW, WI US",0.6111,GHCND:US1WIJF0017,METERS,-88.799253
254.8,2018-04-13,2024-11-01,43.18063,"WATERTOWN 0.8 S, WI US",0.9436,GHCND:US1WIJF0019,METERS,-88.72399
256.9,2020-04-01,2025-11-01,42.98562,"SULLIVAN 2.6 SW, WI US",0.5732,GHCND:US1WIJF0022,METERS,-88.624985
271.0,2020-04-21,2025-11-03,43.131262,"LAC LABELLE 1.2 SW, WI US",0.7879,GHCND:US1WIJF0024,METERS,-88.539594
266.4,2020-09-06,2025-10-28,43.004516,"JEFFERSON 0.9 E, WI US",0.3555,GHCND:US1WIJF0027,METERS,-88.791076
258.2,2021-04-12,2025-11-01,43.136138,"LAKE MILLS 4.3 N, WI US",0.9261,GHCND:US1WIJF0029,METERS,-88.900548
259.4,2022-03-18,2025-10-21,42.961943,"SULLIVAN 3.5 S, WI US",0.204,GHCND:US1WIJF0031,METERS,-88.583568
273.4,2022-07-28,2022-11-30,42.9456828,"DOUSMAN 6.0 SW, WI US",0.9524,GHCND:US1WIJF0032,METERS,-88.5422655
258.8,2022-06-01,2023-11-22,43.1794164,"WATERLOO 0.2 S, WI US",0.6833,GHCND:US1WIJF0033,METERS,-88.989701
249.9,2022-09-01,2024-08-02,43.18236,"WATERTOWN 0.7 SSW, WI US",0.1567,GHCND:US1WIJF0035,METERS,-88.728827
241.7,2023-04-16,2025-11-02,42.932506,"FORT ATKINSON 1.2 WNW, WI US",0.9506,GHCND:US1WIJF0038,METERS,-88.863699
269.4,2024-04-14,2025-11-01,42.9254983,"FORT ATKINSON 4.3 W, WI US",0.6702,GHCND:US1WIJF0040,METERS,-88.926415
271.0,2024-07-22,2025-11-03,42.9804033,"JEFFERSON 4.1 WSW, WI US",0.9574,GHCND:US1WIJF0043,METERS,-88.880074
248.1,2007-07-13,2022-10-13,44.32,"BLACK RIVER FALLS 1.7 NNE, WI US",0.9733,GHCND:US1WIJK0001,METERS,-90.83
255.4,2021-04-08,2025-11-03,44.129457,"MELROSE 3.6 W, WI US",0.9862,GHCND:US1WIJK0004,METERS,-91.06834
274.9,1998-06-17,2024-12-04,43.9870795,"NECEDAH 5.0 ESE, WI US",0.115,GHCND:US1WIJN0001,METERS,-89.9858183
351.7,2014-06-06,2015-01-05,43.742495,"MAUSTON 6.7 SW, WI US",0.8972,GHCND:US1WIJN0002,METERS,-90.188233
256.3,2018-04-27,2019-10-29,43.646551,"WISCONSIN DELLS 1.7 NNW, WI US",0.4065,GHCND:US1WIJN0005,METERS,-89.796324
276.8,2021-03-26,2025-10-23,43.7675,"MAUSTON 6.7 ESE, WI US",0.2624,GHCND:US1WIJN0011,METERS,-89.9556
274.0,2022-04-11,2022-08-26,43.8816,"MAUSTON 7.6 NE, WI US",0.9783,GHCND:US1WIJN0012,METERS,-89.97768
214.0,2007-03-29,2018-11-08,42.558389,"KENOSHA 2.2 SW, WI US",0.7726,GHCND:US1WIKN0001,METERS,-87.880703
188.4,2007-09-13,2008-05-03,42.5087,"PLEASANT PRAIRIE 3.4 ESE, WI US",0.765,GHCND:US1WIKN0002,METERS,-87.8188
187.1,2008-06-20,2008-12-05,42.646443,"KENOSHA 4.7 NNE, WI US",0.7278,GHCND:US1WIKN0003,METERS,-87.818228
198.7,2010-04-09,2025-11-03,42.559699,"KENOSHA 1.7 S, WI US",0.9993,GHCND:US1WIKN0006,METERS,-87.856616
202.4,2010-07-14,2024-11-14,42.63317,"KENOSHA 3.4 N, WI US",0.5435,GHCND:US1WIKN0007,METERS,-87.851749
176.8,2010-07-11,2013-03-16,42.647056,"KENOSHA 4.8 NNE, WI US",0.7439,GHCND:US1WIKN0008,METERS,-87.815806
213.1,2014-06-17,2021-05-25,42.560056,"PLEASANT PRAIRIE 3.8 NW, WI US",0.9597,GHCND:US1WIKN0011,METERS,-87.938438
210.6,2014-08-14,2015-11-27,42.5627,"KENOSHA 1.8 SW, WI US",0.9427,GHCND:US1WIKN0012,METERS,-87.8745
252.4,2015-10-18,2017-10-03,42.567626953125,"PADDOCK LAKE 0.3 SSW, WI US",0.9986,GHCND:US1WIKN0013,METERS,-88.1039886474609
198.1,2015-09-18,2025-10-22,42.522507,"PLEASANT PRAIRIE 2.1 E, WI US",0.2025,GHCND:US1WIKN0014,METERS,-87.840537
252.1,2017-12-16,2025-10-18,42.551609,"SALEM 0.9 ESE, WI US",0.1571,GHCND:US1WIKN0016,METERS,-88.093742
230.7,2017-11-08,2021-06-01,42.506167,"TREVOR 1.8 WSW, WI US",0.3318,GHCND:US1WIKN0017,METERS,-88.155278
241.1,2018-03-14,2025-11-03,42.535417,"TWIN LAKES 1.5 NE, WI US",0.9795,GHCND:US1WIKN0018,METERS,-88.238639
217.3,2020-05-15,2025-11-02,42.558832,"PLEASANT PRAIRIE 3.3 NW, WI US",0.9114,GHCND:US1WIKN0021,METERS,-87.925041
260.9,2020-04-20,2021-05-04,42.5358,"GENOA CITY 2.7 NNE, WI US",0.4816,GHCND:US1WIKN0023,METERS,-88.2971
191.1,2020-05-11,2025-06-20,42.56316,"KENOSHA 1.5 S, WI US",0.4612,GHCND:US1WIKN0025,METERS,-87.85015
223.1,2020-05-06,2025-11-03,42.56913,"KENOSHA 3.8 WSW, WI US",0.8865,GHCND:US1WIKN0026,METERS,-87.92632
196.6,2020-12-18,2022-03-07,42.568387,"KENOSHA 1.4 SE, WI US",0.4337,GHCND:US1WIKN0027,METERS,-87.838104
218.5,2021-05-26,2025-11-03,42.515031,"PLEASANT PRAIRIE 1.4 ESE, WI US",0.9932,GHCND:US1WIKN0028,METERS,-87.858048
277.1,2021-08-27,2025-06-30,42.59153,"BURLINGTON 6.1 SSW, WI US",0.2799,GHCND:US1WIKN0029,METERS,-88.303531
193.2,2022-03-15,2025-11-03,42.5405,"KENOSHA 3.1 SSE, WI US",0.9797,GHCND:US1WIKN0031,METERS,-87.8421
269.4,2022-07-03,2025-11-03,42.59019,"BURLINGTON 6.2 SSW, WI US",0.3508,GHCND:US1WIKN0033,METERS,-88.30235
201.8,2022-09-14,2025-11-01,42.548015,"KENOSHA 2.5 S, WI US",0.6515,GHCND:US1WIKN0035,METERS,-87.8577
278.9,2023-08-05,2025-11-03,42.5235,"TWIN LAKES 0.7 ENE, WI US",0.7664,GHCND:US1WIKN0037,METERS,-88.2458
190.8,2024-04-06,2025-11-02,42.563641,"KENOSHA 1.7 SSE, WI US",0.809,GHCND:US1WIKN0041,METERS,-87.837228
219.5,2018-08-21,2025-11-03,44.5266,"LUXEMBURG 3.2 ESE, WI US",0.3575,GHCND:US1WIKW0003,METERS,-87.6454
228.3,2020-04-20,2025-11-03,44.558401,"CASCO 0.4 NNW, WI US",0.5133,GHCND:US1WIKW0004,METERS,-87.621572
225.9,2021-07-01,2025-11-03,44.6135344,"LUXEMBURG 5.1 NNW, WI US",0.5614,GHCND:US1WIKW0005,METERS,-87.7351028
201.5,2023-03-30,2024-11-04,44.6293003,"ALGOMA 3.2 WNW, WI US",0.5154,GHCND:US1WIKW0007,METERS,-87.5014592
253.9,2023-03-21,2025-11-01,44.4585432,"LUXEMBURG 5.9 S, WI US",0.8851,GHCND:US1WIKW0008,METERS,-87.7206886
252.1,2024-03-08,2025-11-03,44.529645,"LUXEMBURG 0.9 S, WI US",0.4472,GHCND:US1WIKW0009,METERS,-87.707313
224.9,2007-03-01,2025-11-02,43.89634,"WEST SALEM 0.7 W, WI US",0.5623,GHCND:US1WILC0001,METERS,-91.096334
218.8,1998-06-17,2020-09-05,44.057439,"HOLMEN 6.9 N, WI US",0.0343,GHCND:US1WILC0003,METERS,-91.265575
255.1,2007-08-05,2025-10-25,44.022818,"MELROSE 8.2 SSW, WI US",0.1655,GHCND:US1WILC0004,METERS,-91.061962
203.9,2007-09-07,2009-10-07,43.786979,"LA CROSSE 3.0 SSE, WI US",0.143,GHCND:US1WILC0007,METERS,-91.209032
209.4,2009-06-01,2025-11-01,43.7662,"LA CROSSE 5.4 SE, WI US",0.2714,GHCND:US1WILC0008,METERS,-91.166
218.8,2008-11-12,2016-01-04,43.904,"ONALASKA 1.6 NW, WI US",0.9084,GHCND:US1WILC0010,METERS,-91.2397
243.8,2010-01-11,2014-09-17,43.970476,"HOLMEN 0.9 N, WI US",0.0912,GHCND:US1WILC0011,METERS,-91.259361
225.2,2016-10-29,2019-05-24,43.885566,"WEST SALEM 1.3 SW, WI US",0.6237,GHCND:US1WILC0015,METERS,-91.101618
249.0,2018-03-26,2021-07-29,43.823022,"LA CROSSE 5.3 E, WI US",0.1579,GHCND:US1WILC0017,METERS,-91.127145
213.1,2018-05-01,2025-11-03,43.8816,"ONALASKA 0.6 SW, WI US",0.3604,GHCND:US1WILC0018,METERS,-91.22729
196.3,2019-06-18,2022-11-07,43.7658,"LA CROSSE 4.4 SSE, WI US",0.6279,GHCND:US1WILC0020,METERS,-91.206
248.1,2020-05-10,2025-11-03,43.756687,"COON VALLEY 4.5 NNW, WI US",0.9576,GHCND:US1WILC0021,METERS,-91.059421
215.2,2020-06-26,2025-11-03,43.9344,"HOLMEN 1.7 SSE, WI US",0.979,GHCND:US1WILC0022,METERS,-91.2449
272.5,2021-03-27,2021-09-18,44.040723,"MINDORO 6.6 E, WI US",0.767,GHCND:US1WILC0025,METERS,-90.972189
205.1,2021-06-24,2025-09-23,43.792223,"LA CROSSE 2.4 S, WI US",0.5235,GHCND:US1WILC0027,METERS,-91.228911
206.0,2021-06-27,2025-10-30,43.809023,"LA CROSSE 1.3 SSE, WI US",0.8954,GHCND:US1WILC0028,METERS,-91.2235
242.3,2021-12-08,2025-11-03,43.8919,"ONALASKA 1.9 E, WI US",0.9902,GHCND:US1WILC0030,METERS,-91.1815
391.1,2023-10-16,2024-09-23,43.7883,"LA CROSSE 10.1 ESE, WI US",0.657,GHCND:US1WILC0037,METERS,-91.03827
211.8,2024-03-29,2025-11-03,43.88511,"ONALASKA 0.5 WSW, WI US",0.8564,GHCND:US1WILC0038,METERS,-91.22913
304.8,2014-01-01,2018-04-16,42.63077,"WIOTA 3.0 E, WI US",0.8469,GHCND:US1WILF0001,METERS,-89.89503
288.3,2017-04-11,2025-11-03,42.610338,"DARLINGTON 4.9 SSE, WI US",0.4759,GHCND:US1WILF0004,METERS,-90.097848
277.4,2018-03-08,2025-04-03,42.57194,"BENTON 0.3 WNW, WI US",0.774,GHCND:US1WILF0005,METERS,-90.38755
267.0,2018-01-30,2025-11-03,42.51173,"SOUTH WAYNE 3.9 SSW, WI US",0.9093,GHCND:US1WILF0006,METERS,-89.895552
270.4,2022-08-21,2025-11-02,42.570812,"BENTON 0.2 E, WI US",0.9897,GHCND:US1WILF0008,METERS,-90.378321
314.6,2024-02-26,2025-11-03,42.755837,"DARLINGTON 6.1 NNW, WI US",0.6953,GHCND:US1WILF0010,METERS,-90.18108
529.4,2024-04-16,2025-11-03,45.3827146,"ELCHO 4.8 SW, WI US",0.3263,GHCND:US1WILG0009,METERS,-89.2497965
451.1,2024-03-29,2024-11-22,45.34137,"LILY 3.3 NE, WI US",0.7406,GHCND:US1WILG0010,METERS,-88.8068
513.0,2024-05-20,2025-11-02,45.2669389,"BRYANT 5.5 NE, WI US",0.8195,GHCND:US1WILG0012,METERS,-88.9488165
427.9,2007-03-31,2025-11-03,45.177458,"MERRILL 7.0 W, WI US",0.9963,GHCND:US1WILN0002,METERS,-89.848184
446.2,2014-03-11,2017-05-01,45.25081,"GLEASON 5.3 SE, WI US",0.324,GHCND:US1WILN0003,METERS,-89.425138
455.1,2016-10-02,2022-12-08,45.3404,"IRMA 0.8 SSW, WI US",0.2501,GHCND:US1WILN0004,METERS,-89.6715
452.6,2020-06-22,2025-02-16,45.539177,"TOMAHAWK 4.6 N, WI US",0.893,GHCND:US1WILN0006,METERS,-89.708704
442.3,2020-07-09,2025-11-03,45.4576,"TOMAHAWK 1.2 SSW, WI US",0.4877,GHCND:US1WILN0007,METERS,-89.73248
446.5,2021-04-04,2025-11-03,45.1518,"MERRILL 14.1 W, WI US",0.8549,GHCND:US1WILN0008,METERS,-89.9896
184.4,2012-10-18,2025-11-03,44.174674987793,"TWO RIVERS 4.5 WNW, WI US",0.9945,GHCND:US1WIMC0002,METERS,-87.6676940917969
185.3,2013-04-12,2025-11-03,44.17616666,"TWO RIVERS 1.4 N, WI US",0.9817,GHCND:US1WIMC0004,METERS,-87.58333333
274.6,2013-04-25,2025-11-03,43.8994385,"ELKHART LAKE 6.8 NE, WI US",0.8689,GHCND:US1WIMC0005,METERS,-87.91285514
261.8,2014-04-29,2025-11-03,44.1438,"BRILLION 2.8 SE, WI US",0.2472,GHCND:US1WIMC0007,METERS,-88.0384
200.9,2015-04-12,2017-05-28,44.12481,"MANITOWOC 1.9 NNW, WI US",0.6722,GHCND:US1WIMC0008,METERS,-87.690431
194.8,2017-03-14,2021-11-12,44.1094398498535,"MANITOWOC 1.1 NE, WI US",0.085,GHCND:US1WIMC0010,METERS,-87.6603012084961
178.6,2017-08-25,2025-11-02,44.147,"TWO RIVERS 0.9 SE, WI US",0.9913,GHCND:US1WIMC0012,METERS,-87.5697
197.2,2020-03-28,2025-11-03,44.1896,"TWO RIVERS 4.1 WNW, WI US",0.7313,GHCND:US1WIMC0014,METERS,-87.65083
248.1,2020-04-11,2025-11-02,44.03991,"VALDERS 3.3 WSW, WI US",0.9488,GHCND:US1WIMC0015,METERS,-87.94202
200.3,2020-05-01,2025-11-03,44.23228,"MISHICOT 0.1 NNW, WI US",0.9831,GHCND:US1WIMC0016,METERS,-87.64477
182.0,2022-04-11,2025-10-19,44.163059,"TWO RIVERS 0.7 NE, WI US",0.4503,GHCND:US1WIMC0019,METERS,-87.571287
200.3,2022-05-30,2024-09-17,44.113726,"MANITOWOC 1.4 NW, WI US",0.8539,GHCND:US1WIMC0020,METERS,-87.694696
185.0,2022-08-17,2025-11-03,44.17294,"TWO RIVERS 1.2 N, WI US",0.9685,GHCND:US1WIMC0022,METERS,-87.5785
191.7,2023-03-28,2025-11-03,44.17615,"TWO RIVERS 1.4 N, WI US",0.9958,GHCND:US1WIMC0024,METERS,-87.58465
240.2,2024-04-08,2025-11-03,44.05563,"MANITOWOC 5.1 SW, WI US",0.9722,GHCND:US1WIMC0025,METERS,-87.76208
236.2,2024-05-08,2025-11-03,44.061435,"MANITOWOC 4.1 SW, WI US",0.8055,GHCND:US1WIMC0027,METERS,-87.7413728
322.2,2011-06-07,2012-12-12,44.9804,"NEOPIT 0.2 WSW, WI US",0.9207,GHCND:US1WIMM0001,METERS,-88.829348
259.1,2007-03-22,2008-05-21,43.912232,"SPARTA 2.5 SSE, WI US",0.6862,GHCND:US1WIMN0001,METERS,-90.782838
256.0,2006-11-02,2008-10-16,43.954,"SPARTA 0.8 NNE, WI US",0.6266,GHCND:US1WIMN0003,METERS,-90.8048
429.2,2007-08-09,2025-10-22,43.810275,"WILTON 4.2 E, WI US",0.6116,GHCND:US1WIMN0004,METERS,-90.443579
262.7,2012-01-29,2025-11-03,43.8109717,"CASHTON 4.8 N, WI US",0.4578,GHCND:US1WIMN0005,METERS,-90.7628767
299.0,2014-06-06,2017-06-19,44.061415,"TOMAH 5.0 N, WI US",0.9631,GHCND:US1WIMN0006,METERS,-90.504811
337.4,2020-03-08,2025-11-03,44.103869,"WARRENS 4.7 WSW, WI US",0.9942,GHCND:US1WIMN0009,METERS,-90.588847
431.0,2022-03-10,2025-11-01,43.896367,"TOMAH 7.5 SSW, WI US",0.9797,GHCND:US1WIMN0013,METERS,-90.578933
268.2,2020-05-05,2025-06-04,43.8912,"WESTFIELD 0.5 N, WI US",0.2095,GHCND:US1WIMQ0004,METERS,-89.493
252.1,2021-03-21,2025-11-03,43.898264,"NESHKORO 5.0 SSE, WI US",0.8526,GHCND:US1WIMQ0005,METERS,-89.175599
309.4,2021-07-03,2025-11-03,43.972696,"WESTFIELD 6.3 NNW, WI US",0.9135,GHCND:US1WIMQ0007,METERS,-89.523323
213.4,2010-05-01,2015-05-16,45.425556,"WAUSAUKEE 5.5 NE, WI US",0.1194,GHCND:US1WIMR0001,METERS,-87.863056
289.3,2018-03-08,2025-11-02,45.487722,"AMBERG 1.3 SW, WI US",0.3096,GHCND:US1WIMR0003,METERS,-88.010194
312.4,2020-08-28,2025-11-02,45.735648,"NIAGARA 5.1 SE, WI US",0.1405,GHCND:US1WIMR0007,METERS,-87.916787
273.1,2023-11-25,2024-08-16,45.27961,"CRIVITZ 12.5 WNW, WI US",0.7744,GHCND:US1WIMR0011,METERS,-88.255147
370.9,2007-03-10,2025-10-23,44.918056,"SCHOFIELD 3.3 E, WI US",0.3466,GHCND:US1WIMT0001,METERS,-89.544722
401.1,2010-07-01,2025-10-22,44.887307,"SCHOFIELD 2.1 SSE, WI US",0.7155,GHCND:US1WIMT0003,METERS,-89.595877
370.3,2008-08-30,2025-11-03,44.969427,"WAUSAU 1.7 ENE, WI US",0.7531,GHCND:US1WIMT0004,METERS,-89.610852
410.6,2009-09-17,2014-09-02,44.95865,"WAUSAU 1.6 E, WI US",0.1402,GHCND:US1WIMT0005,METERS,-89.6119918
363.9,2014-05-09,2015-05-15,44.844167,"KRONENWETTER 1.7 NNW, WI US",0.3253,GHCND:US1WIMT0009,METERS,-89.608056
358.4,2015-05-31,2016-07-03,44.7347697615623,"HATLEY 11.3 SSW, WI US",0.6125,GHCND:US1WIMT0010,METERS,-89.421245008707
364.8,2015-07-07,2025-09-03,44.8394546508789,"EVERGREEN 1.7 E, WI US",0.2896,GHCND:US1WIMT0011,METERS,-89.6039505004883
344.7,2017-06-13,2025-11-01,44.696034,"MOSINEE 6.3 S, WI US",0.8058,GHCND:US1WIMT0013,METERS,-89.69608
350.2,2017-12-04,2025-10-15,44.772409,"MOSINEE 2.7 WSW, WI US",0.3982,GHCND:US1WIMT0014,METERS,-89.734414
383.1,2018-06-17,2021-11-13,44.870371,"STRATFORD 6.4 NW, WI US",0.5923,GHCND:US1WIMT0015,METERS,-90.157238
369.7,2018-07-12,2025-11-03,44.891602,"WAUSAU 5.4 SSW, WI US",0.2882,GHCND:US1WIMT0016,METERS,-89.69407
419.7,2018-11-23,2020-09-03,44.98342,"WAUSAU 2.2 NE, WI US",0.3948,GHCND:US1WIMT0017,METERS,-89.61107
373.4,2020-07-22,2023-10-27,44.951225,"WAUSAU 5.9 E, WI US",0.306,GHCND:US1WIMT0018,METERS,-89.525312
357.8,2020-03-26,2025-11-03,44.83512,"EVERGREEN 1.5 WSW, WI US",0.9571,GHCND:US1WIMT0019,METERS,-89.66528
418.5,2021-03-17,2025-11-02,45.0258142,"ATHENS 0.6 SSW, WI US",0.8848,GHCND:US1WIMT0021,METERS,-90.0834172
344.7,2021-05-30,2025-11-03,44.7317,"MOSINEE 4.0 SSW, WI US",0.6788,GHCND:US1WIMT0023,METERS,-89.7042
365.8,2021-06-29,2025-11-03,44.958125,"WAUSAU 2.4 W, WI US",0.9805,GHCND:US1WIMT0024,METERS,-89.693212
392.0,2022-03-13,2025-11-03,44.8244,"MOSINEE 3.6 NE, WI US",0.4361,GHCND:US1WIMT0027,METERS,-89.63346
381.3,2022-04-11,2025-11-03,44.890343,"ROTHSCHILD 0.5 ENE, WI US",0.7813,GHCND:US1WIMT0029,METERS,-89.612774
349.6,2023-05-04,2024-08-16,44.7912285,"MOSINEE 2.0 W, WI US",0.4352,GHCND:US1WIMT0030,METERS,-89.7245135
427.3,2024-06-15,2025-11-02,44.949134,"WAUSAU 2.3 ESE, WI US",0.7767,GHCND:US1WIMT0033,METERS,-89.600755
202.1,2007-03-01,2025-10-31,43.0978,"SHOREWOOD 0.6 NW, WI US",0.9996,GHCND:US1WIMW0001,METERS,-87.893
242.9,2007-05-25,2025-10-26,42.94131,"GREENDALE 1.1 ENE, WI US",0.0333,GHCND:US1WIMW0004,METERS,-87.9804
210.3,2007-04-01,2007-09-21,43.0683,"MILWAUKEE 3.2 N, WI US",1.0,GHCND:US1WIMW0005,METERS,-87.9028
203.0,2007-08-05,2007-11-27,43.107214,"MILWAUKEE 3.3 NNW, WI US",0.9652,GHCND:US1WIMW0008,METERS,-87.991496
232.9,2007-08-03,2011-05-14,42.922345,"FRANKLIN 3.5 NE, WI US",0.5163,GHCND:US1WIMW0010,METERS,-87.9601
237.1,2007-08-15,2008-06-27,43.091739,"MILWAUKEE 3.6 WNW, WI US",0.5975,GHCND:US1WIMW0011,METERS,-88.0254
207.9,2007-07-31,2025-10-31,42.858322,"OAK CREEK 2.2 SE, WI US",0.4258,GHCND:US1WIMW0013,METERS,-87.868425
206.0,1998-06-17,2025-11-03,43.112994,"MILWAUKEE 3.6 NNW, WI US",0.6369,GHCND:US1WIMW0014,METERS,-87.987289
231.0,2008-09-04,2012-01-13,43.084993,"MILWAUKEE 2.6 NW, WI US",0.0962,GHCND:US1WIMW0017,METERS,-88.009756
234.1,2008-10-22,2025-11-03,42.9980181,"WEST ALLIS 0.7 SSE, WI US",0.9362,GHCND:US1WIMW0018,METERS,-88.023819
241.1,2010-03-16,2025-08-19,42.89753,"FRANKLIN 1.0 NW, WI US",0.2048,GHCND:US1WIMW0019,METERS,-88.021742
244.4,2012-03-04,2025-11-03,42.94093704,"GREENDALE 1.0 ENE, WI US",0.8622,GHCND:US1WIMW0023,METERS,-87.98231506
203.6,2013-03-11,2015-09-08,43.072341,"MILWAUKEE 3.6 E, WI US",0.2566,GHCND:US1WIMW0024,METERS,-87.895664
243.2,2013-03-12,2017-01-11,42.94917,"HALES CORNERS 0.7 NNE, WI US",0.4187,GHCND:US1WIMW0025,METERS,-88.043935
224.3,2014-03-24,2020-09-13,42.902053,"FRANKLIN 2.4 ENE, WI US",0.3314,GHCND:US1WIMW0028,METERS,-87.966594
211.8,2014-04-21,2020-05-17,42.9602216,"CUDAHY 1.1 NNE, WI US",0.1064,GHCND:US1WIMW0029,METERS,-87.8545785
235.0,2015-07-19,2020-08-08,42.965355,"GREENFIELD 1.7 E, WI US",0.184,GHCND:US1WIMW0031,METERS,-87.972501
227.7,2015-07-01,2016-07-07,42.896145,"FRANKLIN 1.7 ENE, WI US",0.3566,GHCND:US1WIMW0032,METERS,-87.978884
240.2,2015-08-25,2025-10-26,42.9327546,"HALES CORNERS 0.7 SE, WI US",0.5353,GHCND:US1WIMW0033,METERS,-88.0412388
244.1,2015-10-04,2016-12-14,42.949215,"HALES CORNERS 0.8 NW, WI US",0.3995,GHCND:US1WIMW0034,METERS,-88.060557
210.0,2017-08-28,2018-01-23,42.95883,"CUDAHY 1.0 NNE, WI US",0.9799,GHCND:US1WIMW0042,METERS,-87.85576
207.0,2017-06-04,2025-10-31,43.184381,"BROWN DEER 0.8 NW, WI US",0.9635,GHCND:US1WIMW0043,METERS,-87.984013
217.9,2017-11-25,2025-11-03,43.058638,"WAUWATOSA 1.9 E, WI US",0.9638,GHCND:US1WIMW0046,METERS,-87.996007
234.4,2018-05-01,2021-10-04,42.95317,"MILWAUKEE 6.3 SSW, WI US",0.4022,GHCND:US1WIMW0050,METERS,-87.9466
254.8,2020-05-29,2024-02-23,42.919941,"FRANKLIN 3.7 NW, WI US",0.765,GHCND:US1WIMW0064,METERS,-88.065628
218.5,2020-07-27,2025-08-11,43.101885,"WAUWATOSA 2.9 NNW, WI US",0.0587,GHCND:US1WIMW0066,METERS,-88.051398
230.7,2020-05-17,2021-12-23,42.980574,"MILWAUKEE 6.0 SSW, WI US",0.8259,GHCND:US1WIMW0067,METERS,-88.004365
233.2,1998-06-17,2025-11-03,42.95589,"GREENFIELD 0.7 SW, WI US",0.1964,GHCND:US1WIMW0068,METERS,-88.0151
215.5,2020-05-18,2020-12-13,42.89529,"OAK CREEK 1.0 NNW, WI US",0.9619,GHCND:US1WIMW0069,METERS,-87.90595
220.1,2020-05-19,2023-09-28,42.896082,"FRANKLIN 1.2 ENE, WI US",0.2011,GHCND:US1WIMW0073,METERS,-87.989594
245.4,2021-04-11,2025-11-03,42.948153,"GREENDALE 1.0 NNE, WI US",0.2979,GHCND:US1WIMW0074,METERS,-87.99051
220.7,2021-04-11,2025-11-03,42.948459,"GREENDALE 1.5 NW, WI US",0.9874,GHCND:US1WIMW0077,METERS,-88.025246
210.6,2022-09-10,2025-11-03,42.971383,"ST FRANCIS 0.3 E, WI US",1.0,GHCND:US1WIMW0080,METERS,-87.866605
233.2,2021-04-11,2025-11-03,43.079917,"MILWAUKEE 2.4 WNW, WI US",0.9988,GHCND:US1WIMW0082,METERS,-88.009359
223.4,2021-05-26,2025-11-03,43.1516,"FOX POINT 0.5 SSW, WI US",0.7455,GHCND:US1WIMW0085,METERS,-87.90602
198.1,2022-05-22,2023-09-26,42.989817,"MILWAUKEE 5.4 SSE, WI US",0.288,GHCND:US1WIMW0091,METERS,-87.929742
211.8,2022-04-19,2025-10-22,42.968277,"MILWAUKEE 7.1 SSE, WI US",0.2237,GHCND:US1WIMW0095,METERS,-87.915534
224.9,2022-09-23,2025-11-03,43.064157,"WAUWATOSA 1.5 E, WI US",0.9552,GHCND:US1WIMW0100,METERS,-88.003316
209.4,2023-03-15,2025-08-14,43.18292,"BAYSIDE 0.5 E, WI US",0.4072,GHCND:US1WIMW0104,METERS,-87.89173
214.6,2023-05-26,2024-03-25,42.961277,"ST. FRANCIS 1.6 WSW, WI US",0.4361,GHCND:US1WIMW0106,METERS,-87.900061
224.6,2023-08-11,2025-10-31,42.932275,"CUDAHY 1.2 SW, WI US",0.8426,GHCND:US1WIMW0108,METERS,-87.87916
207.9,2024-04-16,2025-11-03,43.182066,"RIVER HILLS 0.7 NNE, WI US",0.8377,GHCND:US1WIMW0120,METERS,-87.929267
208.2,2024-04-11,2025-11-03,43.10084,"WHITEFISH BAY 1.1 SE, WI US",0.9213,GHCND:US1WIMW0121,METERS,-87.88705
196.3,2024-04-28,2025-11-03,43.10597,"WHITEFISH BAY 0.5 SSW, WI US",0.9063,GHCND:US1WIMW0123,METERS,-87.90563
294.4,2007-04-04,2025-11-02,45.172385,"MOUNTAIN 1.1 SW, WI US",0.9794,GHCND:US1WIOC0001,METERS,-88.489888
272.8,2008-07-18,2010-04-30,44.893698,"GILLETT 8.0 W, WI US",0.9847,GHCND:US1WIOC0003,METERS,-88.469692
197.5,2016-03-13,2022-06-06,44.9039192199707,"LENA 3.8 SSE, WI US",0.0562,GHCND:US1WIOC0007,METERS,-88.0152893066406
314.2,2018-08-02,2025-11-03,45.184002,"MOUNTAIN 0.9 E, WI US",0.8808,GHCND:US1WIOC0008,METERS,-88.45639
412.1,2019-08-16,2024-09-27,45.34882,"TOWNSEND 1.7 NNW, WI US",0.2711,GHCND:US1WIOC0009,METERS,-88.60765
246.9,2021-06-27,2023-04-17,44.859531,"OCONTO FALLS 2.3 WSW, WI US",0.4015,GHCND:US1WIOC0011,METERS,-88.18926
260.9,2021-08-01,2025-10-19,45.131875,"POUND 9.0 WNW, WI US",0.2219,GHCND:US1WIOC0012,METERS,-88.20979
205.4,2022-03-24,2025-09-21,44.79937,"ABRAMS 1.4 N, WI US",0.1526,GHCND:US1WIOC0014,METERS,-88.0597
221.0,2022-12-09,2025-11-03,44.86313,"OCONTO FALLS 1.0 SE, WI US",0.9189,GHCND:US1WIOC0015,METERS,-88.13092
211.8,2023-04-05,2025-09-03,44.67767,"PULASKI 6.6 E, WI US",0.333,GHCND:US1WIOC0016,METERS,-88.10256
205.7,2023-04-10,2025-10-21,44.678179,"LITTLE SUAMICO 1.8 SSW, WI US",0.1631,GHCND:US1WIOC0018,METERS,-88.079164
423.4,2024-04-13,2025-11-03,45.2888892,"TOWNSEND 5.0 WSW, WI US",0.8281,GHCND:US1WIOC0021,METERS,-88.677443
262.1,2024-03-26,2025-11-03,44.885919,"GILLETT 8.4 W, WI US",0.8963,GHCND:US1WIOC0023,METERS,-88.478023
224.9,2007-01-01,2011-04-30,44.268644,"KIMBERLY 0.3 ESE, WI US",0.9975,GHCND:US1WIOG0001,METERS,-88.335437
224.0,2007-03-18,2010-11-12,44.25863,"KIMBERLY 1.0 SE, WI US",0.7784,GHCND:US1WIOG0002,METERS,-88.32836
239.6,2009-09-12,2025-11-03,44.501266,"BLACK CREEK 2.1 NNW, WI US",0.398,GHCND:US1WIOG0005,METERS,-88.469408
235.0,2012-04-08,2022-11-21,44.2858,"APPLETON 1.3 N, WI US",0.8214,GHCND:US1WIOG0007,METERS,-88.3947
219.5,2014-07-03,2025-10-31,44.260624,"KAUKAUNA 1.5 SW, WI US",0.763,GHCND:US1WIOG0012,METERS,-88.285912
242.6,2016-04-12,2025-11-03,44.2682495117188,"APPLETON 0.9 W, WI US",0.3667,GHCND:US1WIOG0015,METERS,-88.415283203125
254.5,2016-04-11,2025-11-03,44.30688,"GRAND CHUTE 2.1 NE, WI US",0.6754,GHCND:US1WIOG0016,METERS,-88.41394
281.6,2016-06-01,2021-10-11,44.331299,"HORTONVILLE 4.5 E, WI US",0.3885,GHCND:US1WIOG0017,METERS,-88.542569
241.4,2017-11-01,2025-11-03,44.45298,"NEW LONDON 4.1 N, WI US",0.2509,GHCND:US1WIOG0018,METERS,-88.72876
239.6,2021-03-24,2025-10-21,44.51844,"BLACK CREEK 5.6 WNW, WI US",0.2684,GHCND:US1WIOG0028,METERS,-88.54565
255.1,2021-03-24,2025-10-23,44.29602,"APPLETON 2.5 NW, WI US",0.157,GHCND:US1WIOG0030,METERS,-88.42539
232.9,2023-08-13,2025-11-03,44.2452,"APPLETON 3.0 ESE, WI US",0.9951,GHCND:US1WIOG0036,METERS,-88.3437
249.3,2024-04-08,2024-11-04,44.4327507,"NEW LONDON 3.3 NE, WI US",0.8863,GHCND:US1WIOG0039,METERS,-88.6981737
250.2,2024-04-23,2025-11-03,44.29172,"APPLETON 2.3 NW, WI US",0.8268,GHCND:US1WIOG0040,METERS,-88.42605
504.4,1998-06-17,2018-03-01,45.656807,"RHINELANDER 2.7 WNW, WI US",0.4962,GHCND:US1WION0001,METERS,-89.463002
487.7,2010-06-29,2022-05-12,45.675835,"RHINELANDER 6.3 WNW, WI US",0.6335,GHCND:US1WION0002,METERS,-89.532447
469.4,2011-07-25,2022-07-04,45.6314121,"RHINELANDER 0.6 SSW, WI US",0.2946,GHCND:US1WION0004,METERS,-89.4147298
504.4,2013-11-28,2025-10-28,45.713878,"RHINELANDER 5.2 N, WI US",0.9145,GHCND:US1WION0006,METERS,-89.421507
451.1,2017-11-01,2024-06-18,45.56261,"TOMAHAWK 6.5 NNW, WI US",0.0743,GHCND:US1WION0007,METERS,-89.76887
498.7,2018-03-27,2025-03-24,45.78186,"HAZELHURST 2.1 SSE, WI US",0.7726,GHCND:US1WION0008,METERS,-89.7033
483.4,2021-07-08,2025-11-02,45.871888,"LAC DU FLAMBEAU 8.1 SSW, WI US",0.6428,GHCND:US1WION0012,METERS,-89.993466
484.0,2022-08-25,2025-06-05,45.701404,"RHINELANDER 5.5 NW, WI US",0.7825,GHCND:US1WION0014,METERS,-89.482931
252.1,2007-03-15,2019-08-25,43.308549,"CEDARBURG 0.8 NNE, WI US",0.9369,GHCND:US1WIOZ0001,METERS,-87.984791
267.9,2008-06-21,2020-09-14,43.27876285,"CEDARBURG 3.7 WSW, WI US",0.4323,GHCND:US1WIOZ0005,METERS,-88.05664293
251.5,2010-03-16,2010-08-24,43.334075,"GRAFTON 1.8 NW, WI US",0.9074,GHCND:US1WIOZ0007,METERS,-87.982431
209.4,2013-04-16,2022-06-14,43.1938438415527,"MEQUON 3.1 SSW, WI US",0.1225,GHCND:US1WIOZ0008,METERS,-88.0082931518555
211.2,2015-02-23,2025-10-31,43.43893,"PORT WASHINGTON 4.2 NE, WI US",0.6296,GHCND:US1WIOZ0009,METERS,-87.82499
200.9,2016-03-31,2025-10-30,43.3861,"PORT WASHINGTON 0.5 S, WI US",0.9452,GHCND:US1WIOZ0012,METERS,-87.879
207.0,2017-10-17,2025-08-19,43.25132,"MEQUON 2.5 ENE, WI US",0.126,GHCND:US1WIOZ0015,METERS,-87.9442
234.7,2017-10-28,2019-07-10,43.316259,"GRAFTON 0.2 SE, WI US",0.8583,GHCND:US1WIOZ0016,METERS,-87.952097
281.0,2018-03-10,2025-11-03,43.4286,"NEWBURG 0.5 ESE, WI US",0.877,GHCND:US1WIOZ0017,METERS,-88.0387
209.1,2019-08-01,2020-07-18,43.221474,"MEQUON 3.3 ESE, WI US",0.9433,GHCND:US1WIOZ0021,METERS,-87.927782
233.8,2020-05-03,2025-11-02,43.372549,"SAUKVILLE 0.9 SSW, WI US",0.9905,GHCND:US1WIOZ0022,METERS,-87.950095
238.4,2021-04-15,2025-11-03,43.280135,"CEDARBURG 1.2 SSW, WI US",0.8281,GHCND:US1WIOZ0023,METERS,-87.994956
217.9,2021-04-09,2025-07-07,43.2494933,"MEQUON 2.7 ENE, WI US",0.3237,GHCND:US1WIOZ0025,METERS,-87.9389532
230.1,2023-04-01,2025-11-03,43.222919,"MEQUON 0.9 W, WI US",0.4103,GHCND:US1WIOZ0030,METERS,-88.002342
212.8,2024-04-04,2025-11-03,43.248078,"MEQUON 3.9 ENE, WI US",0.829,GHCND:US1WIOZ0032,METERS,-87.913115
220.4,2024-04-16,2025-11-02,43.387778,"PORT WASHINGTON 0.6 SW, WI US",0.5141,GHCND:US1WIOZ0033,METERS,-87.889167
306.9,2007-05-01,2016-06-13,44.732251,"ELLSWORTH 3.6 E, WI US",0.8902,GHCND:US1WIPC0001,METERS,-92.406005
279.2,2008-07-01,2017-11-15,44.855851,"RIVER FALLS 0.4 E, WI US",0.915,GHCND:US1WIPC0003,METERS,-92.612674
322.5,2010-04-28,2012-06-15,44.826668,"RIVER FALLS 3.0 SE, WI US",0.1359,GHCND:US1WIPC0004,METERS,-92.57637
274.9,2010-06-24,2025-11-02,44.84032509,"RIVER FALLS 1.2 SSW, WI US",0.7844,GHCND:US1WIPC0005,METERS,-92.63502118
360.0,2010-10-01,2024-08-27,44.77477,"ELLSWORTH 5.9 WNW, WI US",0.6081,GHCND:US1WIPC0007,METERS,-92.58715
244.1,2011-04-09,2014-06-15,44.756431,"PRESCOTT 0.6 NW, WI US",0.9261,GHCND:US1WIPC0008,METERS,-92.799724
289.3,2013-05-05,2020-10-18,44.790697,"BELDENVILLE 7.2 ENE, WI US",0.5907,GHCND:US1WIPC0009,METERS,-92.363861
296.9,2013-08-29,2025-11-03,44.8358,"RIVER FALLS 1.4 S, WI US",0.7681,GHCND:US1WIPC0010,METERS,-92.621
276.8,2014-04-09,2017-09-28,44.862217,"RIVER FALLS 0.7 NW, WI US",0.8558,GHCND:US1WIPC0011,METERS,-92.631195
273.4,2014-06-25,2017-02-24,44.7551498413086,"PRESCOTT 0.5 NE, WI US",0.3299,GHCND:US1WIPC0012,METERS,-92.7825698852539
288.6,2014-07-01,2020-09-24,44.839834,"RIVER FALLS 1.1 S, WI US",0.0887,GHCND:US1WIPC0013,METERS,-92.619513
245.4,2016-03-14,2021-12-11,44.758519,"PRESCOTT 0.7 NW, WI US",0.4831,GHCND:US1WIPC0019,METERS,-92.799642
313.9,2016-07-12,2019-10-05,44.718258,"ELLSWORTH 3.4 ESE, WI US",0.1634,GHCND:US1WIPC0020,METERS,-92.415395
370.9,2016-07-06,2018-10-13,44.716558,"ELLSWORTH 1.4 S, WI US",0.9337,GHCND:US1WIPC0022,METERS,-92.476833
323.4,2014-07-05,2019-05-16,44.842453,"SPRING VALLEY 1.1 WSW, WI US",0.1503,GHCND:US1WIPC0023,METERS,-92.259544
310.0,2018-06-16,2025-11-03,44.711193,"ELLSWORTH 2.6 SW, WI US",0.8391,GHCND:US1WIPC0025,METERS,-92.518491
271.0,2020-05-01,2025-06-26,44.829035,"RIVER FALLS 3.5 WSW, WI US",0.1726,GHCND:US1WIPC0026,METERS,-92.682869
362.1,2019-06-15,2024-12-28,44.637304,"BAY CITY 3.7 NNW, WI US",0.3202,GHCND:US1WIPC0029,METERS,-92.471654
339.2,2020-04-29,2025-11-01,44.661598,"PLUM CITY 2.1 NNW, WI US",0.1664,GHCND:US1WIPC0031,METERS,-92.203101
329.5,2021-02-23,2022-04-03,44.789659,"RIVER FALLS 5.3 SSW, WI US",0.916,GHCND:US1WIPC0033,METERS,-92.678406
308.2,2021-04-07,2025-06-13,44.5755875,"MAIDEN ROCK 1.8 WNW, WI US",0.0896,GHCND:US1WIPC0035,METERS,-92.3439163
338.0,2021-03-28,2025-11-03,44.8011287271039,"SPRING VALLEY 5.2 SW, WI US",0.9988,GHCND:US1WIPC0037,METERS,-92.3206820283594
232.0,2021-07-19,2025-10-31,44.612938,"HAGER CITY 1.8 WNW, WI US",0.9183,GHCND:US1WIPC0038,METERS,-92.571052
343.5,2022-08-24,2025-10-31,44.6505125,"ELLSWORTH 6.1 S, WI US",0.7073,GHCND:US1WIPC0040,METERS,-92.4949693
298.1,2024-03-13,2025-11-01,44.75333,"PRESCOTT 4.8 E, WI US",0.3072,GHCND:US1WIPC0045,METERS,-92.69205
304.8,2024-04-07,2025-11-03,44.808027,"RIVER FALLS 3.3 S, WI US",0.875,GHCND:US1WIPC0049,METERS,-92.632307
385.3,2009-10-25,2011-08-03,45.3172,"CLAYTON 0.7 SE, WI US",0.9738,GHCND:US1WIPK0003,METERS,-92.15895
322.5,2010-02-13,2025-11-03,45.324359,"DRESSER 6.1 ESE, WI US",0.8212,GHCND:US1WIPK0004,METERS,-92.520793
352.3,2011-02-02,2025-11-03,45.3937303,"AMERY 6.5 NNW, WI US",0.8909,GHCND:US1WIPK0007,METERS,-92.4077977
385.9,2012-02-29,2013-05-09,45.5410419,"LUCK 2.8 SSW, WI US",0.3417,GHCND:US1WIPK0009,METERS,-92.4988586
340.5,2012-04-04,2021-05-29,45.381126,"ST. CROIX FALLS 7.0 ESE, WI US",0.6054,GHCND:US1WIPK0010,METERS,-92.495763
333.5,2012-05-04,2012-11-11,45.381736,"ST. CROIX FALLS 6.4 ESE, WI US",0.9583,GHCND:US1WIPK0011,METERS,-92.50712
285.6,2014-03-27,2018-06-09,45.33038,"OSCEOLA 2.4 ENE, WI US",0.9876,GHCND:US1WIPK0014,METERS,-92.64943
343.5,2015-06-01,2024-07-07,45.260162,"AMERY 3.0 S, WI US",0.2493,GHCND:US1WIPK0019,METERS,-92.362047
289.9,2018-06-20,2021-10-08,45.399446,"ST. CROIX FALLS 0.7 S, WI US",0.942,GHCND:US1WIPK0024,METERS,-92.632749
361.2,2019-02-14,2019-09-13,45.379574,"DRESSER 2.8 ENE, WI US",0.4764,GHCND:US1WIPK0025,METERS,-92.58297
304.2,2019-04-18,2025-10-13,45.59531,"CUSHING 3.6 NE, WI US",0.5133,GHCND:US1WIPK0026,METERS,-92.62338
373.4,2019-07-25,2022-04-13,45.571849,"LUCK 0.7 WSW, WI US",0.2093,GHCND:US1WIPK0028,METERS,-92.481209
296.9,2020-07-09,2025-05-02,45.261343,"STAR PRAIRIE 4.6 NNW, WI US",0.1455,GHCND:US1WIPK0029,METERS,-92.559149
326.4,2021-06-24,2025-10-22,45.7154842,"FREDERIC 10.7 ENE, WI US",0.1296,GHCND:US1WIPK0034,METERS,-92.2584055
344.1,2022-03-10,2025-11-01,45.42787,"BALSAM LAKE 4.1 ESE, WI US",0.2881,GHCND:US1WIPK0039,METERS,-92.38084
285.9,2022-05-04,2025-10-10,45.2259375,"STAR PRAIRIE 3.0 NW, WI US",0.3774,GHCND:US1WIPK0041,METERS,-92.5799102
348.1,2022-06-13,2025-06-16,45.238194,"DEER PARK 3.6 NNW, WI US",0.8418,GHCND:US1WIPK0042,METERS,-92.406465
350.5,2023-03-25,2025-11-03,45.45251,"BALSAM LAKE 1.3 ESE, WI US",0.9309,GHCND:US1WIPK0043,METERS,-92.42815
359.4,2023-05-05,2025-10-31,45.639291098937,"FREDERIC 2.6 WSW, WI US",0.7925,GHCND:US1WIPK0044,METERS,-92.5121914603142
353.9,2023-03-10,2025-11-02,45.380602,"AMERY 5.4 NNE, WI US",0.968,GHCND:US1WIPK0045,METERS,-92.3353156
360.6,2023-07-03,2024-09-11,45.253652,"CLEAR LAKE 3.1 E, WI US",0.4302,GHCND:US1WIPK0048,METERS,-92.205595
363.3,2024-03-17,2025-11-03,45.42,"TURTLE LAKE 3.4 NW, WI US",0.9531,GHCND:US1WIPK0049,METERS,-92.199
297.8,2024-04-11,2025-11-03,45.585817,"CUSHING 1.0 E, WI US",0.5402,GHCND:US1WIPK0051,METERS,-92.636501
332.2,2024-05-26,2025-09-21,45.3295,"AMERY 1.8 NNE, WI US",0.2624,GHCND:US1WIPK0053,METERS,-92.35353
365.5,2009-06-17,2017-08-05,44.6758023559144,"ARKANSAW 4.4 NW, WI US",0.3769,GHCND:US1WIPP0001,METERS,-92.1009333942034
348.4,2011-03-22,2025-11-03,44.5178884,"STOCKHOLM 3.0 NE, WI US",0.8468,GHCND:US1WIPP0002,METERS,-92.2237187
252.4,2016-04-29,2025-10-30,44.62298,"DURAND 0.5 SW, WI US",0.2183,GHCND:US1WIPP0004,METERS,-91.96654
239.6,2018-05-03,2025-09-13,44.619708,"ARKANSAW 1.2 SE, WI US",0.2285,GHCND:US1WIPP0008,METERS,-92.016875
236.8,2022-03-23,2025-11-03,44.61575,"DURAND 1.5 SW, WI US",0.9062,GHCND:US1WIPP0012,METERS,-91.98338
258.5,2022-09-21,2025-10-10,44.6301655,"DURAND 0.7 E, WI US",0.336,GHCND:US1WIPP0013,METERS,-91.9454607
438.9,2007-06-02,2007-12-27,45.694282,"PHILLIPS 3.6 W, WI US",0.9426,GHCND:US1WIPR0001,METERS,-90.471504
481.3,2009-03-20,2025-11-03,45.965008,"BUTTERNUT 5.9 SW, WI US",0.933,GHCND:US1WIPR0002,METERS,-90.597504
467.3,2016-04-01,2025-11-03,45.9525,"PARK FALLS 1.3 N, WI US",0.8216,GHCND:US1WIPR0004,METERS,-90.4472
458.4,1998-06-17,2025-11-03,45.67677,"PHILLIPS 1.3 S, WI US",0.2874,GHCND:US1WIPR0006,METERS,-90.39543
494.7,2018-03-19,2025-11-03,45.4545,"BRANTWOOD 7.4 S, WI US",0.9846,GHCND:US1WIPR0007,METERS,-90.10249
453.2,2018-04-08,2025-11-02,45.690866,"PHILLIPS 0.4 SSW, WI US",0.7972,GHCND:US1WIPR0008,METERS,-90.402001
442.0,2019-04-25,2019-09-30,45.878405,"FIFIELD 0.4 W, WI US",0.7421,GHCND:US1WIPR0010,METERS,-90.41403
525.2,2021-04-19,2025-11-03,45.527302,"BRANTWOOD 2.5 S, WI US",0.994,GHCND:US1WIPR0014,METERS,-90.104734
433.4,2021-04-28,2022-09-03,45.69324,"PHILLIPS 8.6 W, WI US",0.3826,GHCND:US1WIPR0015,METERS,-90.57653
331.0,2007-08-01,2011-11-24,44.515797,"STEVENS POINT 0.9 SSW, WI US",0.5815,GHCND:US1WIPT0001,METERS,-89.567748
331.6,2013-11-12,2025-07-23,44.5158576965332,"STEVENS POINT 1.3 SW, WI US",0.0552,GHCND:US1WIPT0003,METERS,-89.5797882080078
331.6,1998-06-17,2018-08-05,44.462151,"PLOVER 0.7 E, WI US",0.1565,GHCND:US1WIPT0006,METERS,-89.529678
346.9,1998-06-17,2025-11-03,44.52553,"RUDOLPH 2.1 NNE, WI US",0.2813,GHCND:US1WIPT0008,METERS,-89.78677
370.6,2017-11-04,2018-10-28,44.57092,"CUSTER 4.3 N, WI US",0.7131,GHCND:US1WIPT0010,METERS,-89.40532
329.2,2017-11-02,2025-11-03,44.45823,"PLOVER 1.8 W, WI US",0.8355,GHCND:US1WIPT0011,METERS,-89.57989
363.0,2018-03-13,2018-11-29,44.62901,"JUNCTION CITY 2.6 N, WI US",0.8817,GHCND:US1WIPT0012,METERS,-89.75958
321.9,2020-04-10,2025-06-09,44.28666,"ALMOND 6.7 ENE, WI US",0.0731,GHCND:US1WIPT0014,METERS,-89.27802
337.1,2022-04-12,2024-11-07,44.4612214,"PLOVER 0.8 E, WI US",0.1254,GHCND:US1WIPT0018,METERS,-89.526405
321.3,2022-03-27,2025-11-03,44.413452,"AMHERST 2.6 SSE, WI US",0.8832,GHCND:US1WIPT0019,METERS,-89.263145
330.4,2024-03-01,2025-11-03,44.442254,"PLOVER 1.4 S, WI US",0.9951,GHCND:US1WIPT0023,METERS,-89.547168
318.2,2020-02-09,2025-11-02,44.3456,"WISCONSIN RAPIDS 6.6 ESE, WI US",0.255,GHCND:US1WIPT0024,METERS,-89.7186
319.1,2024-04-12,2025-11-03,44.28201,"WISCONSIN RAPIDS 9.8 SE, WI US",0.965,GHCND:US1WIPT0025,METERS,-89.71167
334.1,2024-04-20,2025-11-03,44.46946,"AMHERST 1.5 N, WI US",0.9432,GHCND:US1WIPT0026,METERS,-89.28334
241.1,2007-08-01,2018-10-11,42.824292,"WATERFORD NORTH 3.2 NE, WI US",0.0961,GHCND:US1WIRC0001,METERS,-88.174984
218.5,2010-03-23,2025-11-03,42.711242,"RACINE 2.3 WSW, WI US",0.9551,GHCND:US1WIRC0003,METERS,-87.845741
216.4,2014-05-13,2025-10-29,42.7407989501953,"RACINE 3.0 WNW, WI US",0.4031,GHCND:US1WIRC0004,METERS,-87.8633422851563
253.6,2014-06-22,2015-04-16,42.768167,"WATERFORD 0.4 NNW, WI US",0.3846,GHCND:US1WIRC0005,METERS,-88.21919
236.5,2015-04-03,2025-10-26,42.834673,"CALEDONIA 3.6 WNW, WI US",0.144,GHCND:US1WIRC0007,METERS,-87.985429
242.6,2016-08-20,2023-07-25,42.82344,"WIND LAKE 0.4 W, WI US",0.8941,GHCND:US1WIRC0008,METERS,-88.165488
228.9,2016-03-07,2016-12-20,42.76744,"FRANKSVILLE 0.9 NE, WI US",0.6298,GHCND:US1WIRC0010,METERS,-87.89877
190.2,2016-08-27,2018-10-26,42.747123,"RACINE 1.5 NNE, WI US",0.933,GHCND:US1WIRC0012,METERS,-87.792174
235.3,2017-03-06,2017-07-14,42.6887550354004,"UNION GROVE 0.4 NNW, WI US",0.9542,GHCND:US1WIRC0013,METERS,-88.0547103881836
237.7,2017-05-24,2025-10-31,42.829106,"WIND LAKE 0.6 NE, WI US",0.5783,GHCND:US1WIRC0014,METERS,-88.149462
256.9,2019-10-02,2025-11-02,42.765069,"WATERFORD 3.3 E, WI US",0.5886,GHCND:US1WIRC0015,METERS,-88.150635
241.1,2018-03-12,2023-02-10,42.750973,"WATERFORD 1.0 SSW, WI US",0.4758,GHCND:US1WIRC0016,METERS,-88.225082
193.5,2018-04-01,2025-11-03,42.6939,"RACINE 2.4 S, WI US",0.9712,GHCND:US1WIRC0018,METERS,-87.81167
243.2,2018-09-05,2022-11-06,42.829,"WATERFORD 4.6 N, WI US",0.3471,GHCND:US1WIRC0020,METERS,-88.21
210.9,2018-12-02,2025-11-01,42.675278,"ELMWOOD PARK 1.8 SW, WI US",0.6355,GHCND:US1WIRC0022,METERS,-87.849167
249.6,2019-05-24,2025-11-02,42.828326,"WATERFORD 4.5 N, WI US",0.1643,GHCND:US1WIRC0024,METERS,-88.223548
242.6,2019-06-18,2025-09-20,42.738137,"ROCHESTER 0.2 SE, WI US",0.0958,GHCND:US1WIRC0025,METERS,-88.221284
199.9,2020-03-11,2025-11-03,42.74699,"RACINE 1.4 NNW, WI US",0.9763,GHCND:US1WIRC0026,METERS,-87.817245
253.3,2020-05-18,2025-10-07,42.77321,"WATERFORD 0.7 N, WI US",0.4286,GHCND:US1WIRC0028,METERS,-88.21832
186.8,2020-07-01,2021-02-16,42.760664,"RACINE 2.6 NNE, WI US",0.9351,GHCND:US1WIRC0032,METERS,-87.781224
198.7,2020-07-16,2025-11-03,42.81268,"RACINE 5.9 N, WI US",0.9602,GHCND:US1WIRC0033,METERS,-87.8146
194.8,2020-12-06,2021-08-05,42.754375,"RACINE 2.1 NNE, WI US",0.7366,GHCND:US1WIRC0034,METERS,-87.786842
211.8,2021-03-03,2025-11-03,42.688621,"STURTEVANT 0.8 S, WI US",0.4288,GHCND:US1WIRC0036,METERS,-87.897944
189.9,2021-04-09,2025-11-02,42.671416,"ELMWOOD PARK 1.7 SSE, WI US",0.6435,GHCND:US1WIRC0037,METERS,-87.805817
265.8,2021-04-27,2022-10-03,42.70074,"BURLINGTON 3.6 ENE, WI US",0.7333,GHCND:US1WIRC0040,METERS,-88.21407
189.6,2021-05-26,2025-11-03,42.803769,"RACINE 5.2 N, WI US",0.3105,GHCND:US1WIRC0041,METERS,-87.807607
187.1,2022-03-31,2025-11-03,42.763561,"RACINE 2.8 NNE, WI US",0.5388,GHCND:US1WIRC0045,METERS,-87.780312
186.5,2022-05-05,2025-11-03,42.7876,"WIND LAKE 6.0 ESE, WI US",0.9797,GHCND:US1WIRC0048,METERS,-88.0488
248.7,2022-08-07,2025-11-03,42.724327,"ROCHESTER 1.3 SSE, WI US",0.481,GHCND:US1WIRC0049,METERS,-88.210975
222.8,2023-04-09,2025-11-03,42.755995,"FRANKSVILLE 0.3 SSE, WI US",0.7096,GHCND:US1WIRC0052,METERS,-87.910199
226.8,2023-03-25,2025-11-03,42.746,"RACINE 2.6 WNW, WI US",0.8273,GHCND:US1WIRC0053,METERS,-87.8512
200.3,2024-03-30,2025-11-03,42.719646,"RACINE 0.9 SW, WI US",0.6815,GHCND:US1WIRC0056,METERS,-87.820776
242.6,2024-04-27,2025-11-03,42.801349,"FRANKSVILLE 7.0 WNW, WI US",0.8597,GHCND:US1WIRC0057,METERS,-88.0301057
296.9,2007-05-12,2007-12-03,42.562019,"CLINTON 0.4 NNW, WI US",0.9612,GHCND:US1WIRK0002,METERS,-88.869375
275.5,2010-03-19,2025-10-25,42.77913,"EVANSVILLE 0.4 E, WI US",0.6493,GHCND:US1WIRK0006,METERS,-89.29022
285.0,2010-07-05,2019-10-31,42.7543,"JANESVILLE 4.9 N, WI US",0.4451,GHCND:US1WIRK0007,METERS,-89.0343
246.6,2014-03-01,2025-10-25,42.525594457984,"BELOIT 9.5 W, WI US",0.0395,GHCND:US1WIRK0009,METERS,-89.2064275592566
270.7,2016-04-08,2017-12-28,42.6273765563965,"ORFORDVILLE 0.1 SSE, WI US",0.8619,GHCND:US1WIRK0010,METERS,-89.2567672729492
264.9,2017-03-15,2025-11-03,42.67576,"JANESVILLE 3.1 W, WI US",0.9886,GHCND:US1WIRK0012,METERS,-89.07614
240.8,2017-08-01,2025-11-03,42.5214,"BELOIT 0.7 ESE, WI US",0.8466,GHCND:US1WIRK0015,METERS,-89.0076
258.5,2017-10-04,2023-05-23,42.69228,"JANESVILLE 2.7 ENE, WI US",0.3916,GHCND:US1WIRK0016,METERS,-88.96319
242.3,2019-03-21,2022-09-12,42.618825,"JANESVILLE 6.0 SW, WI US",0.4913,GHCND:US1WIRK0018,METERS,-89.091298
316.7,2006-02-22,2022-09-01,42.704632,"WHITEWATER 10.1 SSW, WI US",0.1128,GHCND:US1WIRK0021,METERS,-88.82798
246.0,2020-07-10,2025-11-03,42.652413,"JANESVILLE 3.1 SW, WI US",0.5723,GHCND:US1WIRK0022,METERS,-89.05806
249.9,2021-01-17,2025-11-03,42.836667,"EDGERTON 3.2 E, WI US",0.907,GHCND:US1WIRK0023,METERS,-89.009167
253.9,2018-07-20,2022-11-05,42.5128928,"BELOIT 6.6 W, WI US",0.3083,GHCND:US1WIRK0026,METERS,-89.1495687
282.2,2021-07-02,2025-11-03,42.517717,"BELOIT 3.3 E, WI US",0.9968,GHCND:US1WIRK0027,METERS,-88.956076
259.1,2021-07-08,2025-07-17,42.689713,"JANESVILLE 1.3 WNW, WI US",0.0904,GHCND:US1WIRK0028,METERS,-89.040658
253.3,2021-10-26,2025-10-10,42.642654,"JANESVILLE 2.9 S, WI US",0.7573,GHCND:US1WIRK0029,METERS,-89.021945
271.6,2023-03-25,2024-06-05,42.71024,"JANESVILLE 2.7 NE, WI US",0.9271,GHCND:US1WIRK0033,METERS,-88.97423
237.1,2023-07-24,2024-04-22,42.50175,"BELOIT 1.5 S, WI US",0.7774,GHCND:US1WIRK0036,METERS,-89.02228
278.9,2024-03-11,2025-11-03,42.7336722,"JANESVILLE 3.4 N, WI US",0.8209,GHCND:US1WIRK0037,METERS,-89.011502
266.4,2024-04-04,2025-10-21,42.779855,"MILTON 0.2 WNW, WI US",0.6025,GHCND:US1WIRK0039,METERS,-88.954109
216.1,2018-03-14,2018-08-07,43.18376,"LONE ROCK 0.1 S, WI US",1.0,GHCND:US1WIRL0003,METERS,-90.201829
359.7,2019-04-23,2019-09-15,43.540961,"CAZENOVIA 4.3 WNW, WI US",0.7534,GHCND:US1WIRL0004,METERS,-90.282272
249.9,2020-05-01,2025-11-02,43.395973,"RICHLAND CENTER 4.0 N, WI US",0.7256,GHCND:US1WIRL0006,METERS,-90.385801
310.0,2021-04-02,2025-11-02,43.466213,"CAZENOVIA 4.4 SSW, WI US",0.5901,GHCND:US1WIRL0009,METERS,-90.229808
384.4,2024-04-09,2025-10-29,43.5454,"HILLSBORO 10.7 SW, WI US",0.8647,GHCND:US1WIRL0011,METERS,-90.4889
347.5,2010-07-12,2025-11-03,45.4818,"LADYSMITH 2.8 WNW, WI US",0.7849,GHCND:US1WIRS0001,METERS,-91.1468
340.2,2013-03-24,2025-10-20,45.454155,"BRUCE 1.9 E, WI US",0.5575,GHCND:US1WIRS0003,METERS,-91.235061
359.1,2018-03-09,2018-11-09,45.476444,"LADYSMITH 1.0 NNW, WI US",0.8537,GHCND:US1WIRS0004,METERS,-91.105003
323.7,2021-05-19,2022-11-15,45.324652,"HOLCOMBE 8.8 NW, WI US",0.7216,GHCND:US1WIRS0005,METERS,-91.227612
401.4,2022-06-14,2025-11-03,45.4228323,"WEYERHAEUSER 2.2 W, WI US",0.2429,GHCND:US1WIRS0007,METERS,-91.4603042
335.0,2022-09-07,2025-11-02,45.3206,"CHETEK 10.6 E, WI US",0.9549,GHCND:US1WIRS0008,METERS,-91.4347
347.2,2023-04-22,2023-10-24,45.455842,"LADYSMITH 0.6 SW, WI US",0.543,GHCND:US1WIRS0011,METERS,-91.103723
195.1,2007-04-18,2012-08-09,43.789093,"SHEBOYGAN 3.0 N, WI US",0.6836,GHCND:US1WISB0002,METERS,-87.733675
192.0,2007-08-01,2007-11-27,43.719157,"SHEBOYGAN 1.8 S, WI US",0.9244,GHCND:US1WISB0003,METERS,-87.728034
210.6,2012-10-05,2025-11-03,43.571618,"CEDAR GROVE 0.4 NNE, WI US",0.283,GHCND:US1WISB0005,METERS,-87.819853
340.8,2013-08-21,2025-11-03,43.724420517683,"PLYMOUTH 5.3 WSW, WI US",0.987,GHCND:US1WISB0006,METERS,-88.0741886794567
271.9,2013-11-04,2025-11-03,43.548118,"RANDOM LAKE 0.5 SSE, WI US",0.9687,GHCND:US1WISB0010,METERS,-87.950511
207.3,2014-04-27,2025-11-03,43.7847,"SHEBOYGAN 3.2 NW, WI US",1.0,GHCND:US1WISB0012,METERS,-87.7664
195.4,1998-06-17,2020-06-08,43.7841644287109,"SHEBOYGAN 2.7 N, WI US",0.1974,GHCND:US1WISB0014,METERS,-87.7230377197266
215.2,2017-03-22,2018-05-04,43.842981,"HOWARDS GROVE 1.0 NNE, WI US",0.9218,GHCND:US1WISB0017,METERS,-87.81936
258.8,2017-07-22,2025-11-03,43.811858,"PLYMOUTH 5.4 NE, WI US",0.3482,GHCND:US1WISB0018,METERS,-87.910546
211.8,2018-03-01,2025-11-03,43.7356,"SHEBOYGAN 0.7 SSW, WI US",0.9986,GHCND:US1WISB0019,METERS,-87.7349
215.8,2020-05-03,2022-09-30,43.732649,"SHEBOYGAN FALLS 0.9 ENE, WI US",0.9989,GHCND:US1WISB0025,METERS,-87.805522
192.0,2020-05-24,2025-09-16,43.766012,"SHEBOYGAN 1.7 NNE, WI US",0.9696,GHCND:US1WISB0026,METERS,-87.711643
178.3,2020-06-01,2022-05-04,43.753477,"SHEBOYGAN 0.6 NNE, WI US",0.8393,GHCND:US1WISB0027,METERS,-87.724199
244.1,2021-04-11,2023-10-22,43.5451837,"BELGIUM 3.8 NW, WI US",0.6541,GHCND:US1WISB0029,METERS,-87.8935588
206.7,2021-04-10,2025-11-03,43.7798356,"SHEBOYGAN 3.7 NW, WI US",0.9431,GHCND:US1WISB0030,METERS,-87.7879126
205.1,2021-04-01,2025-11-03,43.6990537,"SHEBOYGAN 3.3 SSW, WI US",0.8415,GHCND:US1WISB0031,METERS,-87.7462621
191.1,2022-05-26,2025-07-16,43.764798,"SHEBOYGAN 1.8 NE, WI US",0.0976,GHCND:US1WISB0035,METERS,-87.7043
224.6,2021-04-27,2025-04-24,43.76132,"SHEBOYGAN FALLS 2.2 N, WI US",0.5435,GHCND:US1WISB0038,METERS,-87.817734
223.1,2023-04-07,2025-11-01,43.72322,"SHEBOYGAN FALLS 1.4 WSW, WI US",0.466,GHCND:US1WISB0040,METERS,-87.849569
207.0,2023-08-01,2025-11-03,43.721987,"SHEBOYGAN FALLS 0.9 SE, WI US",0.8862,GHCND:US1WISB0041,METERS,-87.808518
187.1,2023-08-21,2025-11-03,43.71861,"SHEBOYGAN 2.0 SSE, WI US",0.206,GHCND:US1WISB0042,METERS,-87.71556
213.7,2024-04-17,2025-11-03,43.57695,"CEDAR GROVE 0.7 N, WI US",0.9258,GHCND:US1WISB0043,METERS,-87.82315
209.1,2024-05-05,2025-11-02,43.623517,"OOSTBURG 0.7 E, WI US",0.808,GHCND:US1WISB0044,METERS,-87.784038
284.4,2024-05-07,2025-11-03,43.7464842,"PLYMOUTH 0.7 W, WI US",0.9835,GHCND:US1WISB0045,METERS,-87.98594
310.9,2010-01-28,2010-06-07,44.8792,"RIVER FALLS 4.1 ENE, WI US",0.8168,GHCND:US1WISC0004,METERS,-92.5437
355.1,2013-11-03,2017-06-13,44.92029,"HAMMOND 3.7 S, WI US",0.1948,GHCND:US1WISC0007,METERS,-92.44736
354.5,2012-03-24,2022-06-15,44.97638333,"HAMMOND 0.4 NE, WI US",0.2653,GHCND:US1WISC0009,METERS,-92.43048889
316.4,2012-05-08,2024-09-21,44.93462286,"HUDSON 4.3 ESE, WI US",0.1015,GHCND:US1WISC0010,METERS,-92.66685155
342.3,2012-08-13,2020-08-17,44.9585227966309,"BALDWIN 0.3 SSW, WI US",0.0523,GHCND:US1WISC0012,METERS,-92.3736724853516
280.4,2013-10-07,2016-08-21,44.95172560215,"HUDSON 2.0 ESE, WI US",0.4343,GHCND:US1WISC0014,METERS,-92.7078790962696
303.9,2014-04-16,2017-10-22,45.0778503417969,"NEW RICHMOND 3.1 S, WI US",0.1734,GHCND:US1WISC0016,METERS,-92.5423278808594
313.9,2013-09-04,2015-12-25,44.983341217041,"ROBERTS 0.3 WSW, WI US",0.4021,GHCND:US1WISC0017,METERS,-92.5569839477539
284.7,2014-05-18,2025-10-21,44.8736763000488,"RIVER FALLS 1.5 NNW, WI US",0.131,GHCND:US1WISC0020,METERS,-92.6372146606445
1345.4,2014-06-06,2025-11-01,45.1925048828125,"CLEAR LAKE 4.0 S, WI US",0.2628,GHCND:US1WISC0021,METERS,-92.2785873413086
352.7,2015-07-11,2022-06-23,45.1573944091797,"DEER PARK 2.6 SSE, WI US",0.3386,GHCND:US1WISC0024,METERS,-92.3575973510742
351.1,2015-12-27,2016-11-06,44.9758491516113,"WOODVILLE 7.6 WNW, WI US",0.6962,GHCND:US1WISC0026,METERS,-92.437614440918
298.7,2016-04-03,2018-10-10,45.103318,"NEW RICHMOND 1.6 SSW, WI US",0.139,GHCND:US1WISC0027,METERS,-92.554125
288.6,2018-05-31,2025-11-01,45.02914,"HUDSON 5.1 NNE, WI US",0.3798,GHCND:US1WISC0039,METERS,-92.68627
384.7,2019-04-01,2025-11-03,44.987011,"WOODVILLE 2.6 NNE, WI US",0.6555,GHCND:US1WISC0042,METERS,-92.26638
292.3,2019-05-19,2025-09-22,45.08201,"NEW RICHMOND 4.4 SW, WI US",0.1311,GHCND:US1WISC0044,METERS,-92.60651
300.5,2020-04-03,2025-10-24,45.126888,"NEW RICHMOND 0.4 NW, WI US",0.0763,GHCND:US1WISC0047,METERS,-92.541358
264.6,2020-08-11,2025-10-30,44.9867,"HUDSON 1.6 NNE, WI US",0.4499,GHCND:US1WISC0051,METERS,-92.72627
302.1,2021-03-13,2025-11-03,45.120607,"NEW RICHMOND 0.4 ESE, WI US",0.9758,GHCND:US1WISC0055,METERS,-92.528572
345.9,2021-04-12,2025-07-31,44.951945,"BALDWIN 0.8 SSW, WI US",0.6972,GHCND:US1WISC0057,METERS,-92.378587
312.7,2021-06-30,2025-11-02,45.01124,"HAMMOND 3.2 NW, WI US",0.8746,GHCND:US1WISC0059,METERS,-92.475459
274.3,2021-09-12,2023-10-30,45.20086,"OSCEOLA 8.7 SSW, WI US",0.4159,GHCND:US1WISC0061,METERS,-92.757354
303.3,2022-05-10,2022-11-09,44.932773,"HUDSON 4.3 ESE, WI US",0.6467,GHCND:US1WISC0062,METERS,-92.669484
296.9,2022-04-25,2025-10-24,45.110129,"NEW RICHMOND 1.2 SW, WI US",0.4832,GHCND:US1WISC0063,METERS,-92.5546629
330.1,2022-05-01,2023-07-25,44.939441,"HUDSON 4.4 ESE, WI US",0.8869,GHCND:US1WISC0064,METERS,-92.662001
267.6,2022-05-30,2025-11-03,44.97821,"HUDSON 0.8 NNE, WI US",0.9968,GHCND:US1WISC0065,METERS,-92.73571
260.9,2022-07-06,2025-11-01,44.946936,"HUDSON 1.4 SSE, WI US",0.1868,GHCND:US1WISC0066,METERS,-92.733786
304.5,2023-03-14,2023-10-30,45.1060615,"NEW RICHMOND 1.1 S, WI US",0.5238,GHCND:US1WISC0074,METERS,-92.5343284
329.8,2023-04-01,2025-10-19,44.88556,"RIVER FALLS 3.7 WNW, WI US",0.5745,GHCND:US1WISC0075,METERS,-92.68503
309.7,2023-03-08,2025-11-02,45.015413,"ROBERTS 3.3 NW, WI US",0.8507,GHCND:US1WISC0076,METERS,-92.603221
281.6,2023-03-28,2025-11-03,45.15019,"SOMERSET 1.6 N, WI US",0.8929,GHCND:US1WISC0079,METERS,-92.680951
270.1,2024-04-14,2025-03-30,44.923027,"HUDSON 4.0 SE, WI US",0.4501,GHCND:US1WISC0088,METERS,-92.688054
276.5,2024-05-27,2025-11-03,44.86506,"RIVER FALLS 0.8 NNW, WI US",0.6597,GHCND:US1WISC0090,METERS,-92.62991
359.7,2024-05-29,2025-11-03,44.92369,"KNAPP 4.4 WSW, WI US",0.9447,GHCND:US1WISC0091,METERS,-92.1556707
307.8,2024-06-24,2025-11-03,45.1951,"NEW RICHMOND 6.4 NW, WI US",0.9598,GHCND:US1WISC0092,METERS,-92.6173
341.1,1998-06-17,2023-01-24,43.45901,"ROCK SPRINGS 2.8 WSW, WI US",0.4875,GHCND:US1WISK0002,METERS,-89.96545
235.3,2010-04-20,2014-04-14,43.28083,"SAUK CITY 1.0 NW, WI US",0.1016,GHCND:US1WISK0003,METERS,-89.743435
264.6,2010-08-27,2014-07-01,43.371038,"PRAIRIE DU SAC 5.9 NNW, WI US",0.3829,GHCND:US1WISK0005,METERS,-89.76871
280.4,2018-03-14,2025-11-03,43.55348,"REEDSBURG 1.3 N, WI US",0.9832,GHCND:US1WISK0015,METERS,-89.99739
331.3,2019-04-26,2021-04-10,43.58731,"LA VALLE 3.5 W, WI US",0.6718,GHCND:US1WISK0016,METERS,-90.2002
255.7,2020-03-05,2025-09-13,43.54482,"BARABOO 6.0 NNE, WI US",0.3581,GHCND:US1WISK0017,METERS,-89.682464
219.5,2020-03-26,2021-05-21,43.173097,"SPRING GREEN 0.9 W, WI US",0.3649,GHCND:US1WISK0018,METERS,-90.084465
255.1,2020-05-14,2025-10-31,43.315556,"PLAIN 3.4 NE, WI US",0.0906,GHCND:US1WISK0020,METERS,-89.9975
263.7,2020-07-02,2023-11-17,43.2369,"SAUK CITY 9.8 WSW, WI US",0.3193,GHCND:US1WISK0021,METERS,-89.9176
278.3,2021-03-12,2025-10-06,43.4961,"ROCK SPRINGS 1.6 NW, WI US",0.1078,GHCND:US1WISK0024,METERS,-89.9398
288.6,2021-03-27,2025-11-03,43.6261,"WONEWOC 2.0 SSW, WI US",0.5977,GHCND:US1WISK0025,METERS,-90.2375
262.1,2021-03-16,2025-11-03,43.458611,"BARABOO 3.2 ESE, WI US",0.9717,GHCND:US1WISK0026,METERS,-89.678889
342.9,2021-08-22,2025-11-01,43.404,"HILLPOINT 1.5 SSW, WI US",0.9602,GHCND:US1WISK0027,METERS,-90.124
235.9,2022-04-15,2025-11-02,43.2828,"PRAIRIE DU SAC 0.6 SSE, WI US",0.5955,GHCND:US1WISK0028,METERS,-89.7253
327.4,2024-03-30,2025-11-03,43.26564,"LONE ROCK 5.7 N, WI US",0.9435,GHCND:US1WISK0030,METERS,-90.18032
296.6,2024-03-30,2025-08-14,43.54754,"BARABOO 5.5 N, WI US",0.5348,GHCND:US1WISK0031,METERS,-89.73362
408.4,2010-03-19,2025-11-03,46.1325531,"HAYWARD 9.2 NNE, WI US",0.9933,GHCND:US1WISR0001,METERS,-91.4049683
373.7,2018-03-13,2025-10-10,46.00561,"HAYWARD 2.3 W, WI US",0.0589,GHCND:US1WISR0003,METERS,-91.527967
414.5,2018-04-15,2025-11-03,45.953226,"HAYWARD 4.4 SSE, WI US",0.4605,GHCND:US1WISR0004,METERS,-91.438263
391.7,2019-09-29,2025-11-02,46.1203,"HAYWARD 9.7 NE, WI US",0.5249,GHCND:US1WISR0005,METERS,-91.3537
412.7,2020-04-01,2021-07-03,45.955364,"HAYWARD 6.7 SE, WI US",0.6013,GHCND:US1WISR0006,METERS,-91.365102
415.4,2020-08-18,2025-11-01,46.019231,"HAYWARD 3.8 E, WI US",0.7676,GHCND:US1WISR0010,METERS,-91.402571
424.0,2022-03-17,2025-10-24,46.029577,"HAYWARD 9.6 E, WI US",0.1958,GHCND:US1WISR0011,METERS,-91.28184
387.1,2022-04-05,2022-10-13,45.7962963,"COUDERAY 0.3 W, WI US",0.9115,GHCND:US1WISR0012,METERS,-91.3059962
360.9,2022-11-19,2025-11-03,45.999867,"HAYWARD 1.0 SW, WI US",0.8279,GHCND:US1WISR0015,METERS,-91.493956
408.1,2024-01-09,2025-11-03,45.778021,"OJIBWA 1.4 S, WI US",0.8977,GHCND:US1WISR0019,METERS,-91.112402
242.9,2007-03-28,2023-07-26,44.8492,"CECIL 5.6 ENE, WI US",0.9345,GHCND:US1WISW0001,METERS,-88.34723
312.4,2013-12-20,2025-11-03,44.7195468842983,"TIGERTON 2.4 SE, WI US",0.9735,GHCND:US1WISW0003,METERS,-89.022306650877
278.3,2015-12-29,2025-11-03,44.667804,"PULASKI 3.7 W, WI US",0.9364,GHCND:US1WISW0005,METERS,-88.311561
281.9,2018-10-03,2025-11-03,44.77817,"BONDUEL 3.3 NW, WI US",0.681,GHCND:US1WISW0006,METERS,-88.49245
381.0,2022-04-13,2025-11-03,44.95139,"BIRNAMWOOD 5.9 ENE, WI US",0.9462,GHCND:US1WISW0013,METERS,-89.09222
250.5,2023-04-16,2025-08-15,44.7907565,"SHAWANO 1.6 NW, WI US",0.8839,GHCND:US1WISW0015,METERS,-88.6156176
262.4,2023-03-09,2025-11-03,44.79839,"SHAWANO 5.3 WNW, WI US",0.3821,GHCND:US1WISW0016,METERS,-88.69145
235.0,2007-07-01,2010-06-18,44.0735,"GALESVILLE 1.5 WSW, WI US",0.2408,GHCND:US1WITR0002,METERS,-91.3835
220.7,2011-04-17,2024-09-25,44.0271494,"TREMPEALEAU 1.8 NW, WI US",0.462,GHCND:US1WITR0003,METERS,-91.457853
240.2,2018-09-20,2025-11-01,44.1125,"TREMPEALEAU 7.6 NNW, WI US",0.225,GHCND:US1WITR0005,METERS,-91.47625
250.9,2020-01-06,2025-11-01,44.190047,"ETTRICK 4.0 WNW, WI US",0.6577,GHCND:US1WITR0008,METERS,-91.34249
244.1,2020-07-29,2025-10-21,44.0802,"GALESVILLE 4.7 E, WI US",0.3919,GHCND:US1WITR0010,METERS,-91.26172
303.9,2021-05-24,2025-05-21,44.577221,"OSSEO 0.4 E, WI US",0.1343,GHCND:US1WITR0013,METERS,-91.21025
387.4,2018-06-02,2025-10-23,45.278647,"GILMAN 8.2 NNW, WI US",0.2325,GHCND:US1WITY0001,METERS,-90.860813
369.1,2019-03-07,2022-02-27,45.35598,"SHELDON 8.1 ENE, WI US",0.6189,GHCND:US1WITY0002,METERS,-90.80296
450.8,2020-01-18,2025-11-03,45.14421,"MEDFORD 0.8 ENE, WI US",0.9986,GHCND:US1WITY0003,METERS,-90.333498
526.7,2012-05-03,2013-07-17,46.143468,"LAND O LAKES 7.7 WSW, WI US",0.4875,GHCND:US1WIVL0001,METERS,-89.375176
505.4,2012-07-23,2014-09-12,45.9245125204325,"EAGLE RIVER 0.9 E, WI US",0.1381,GHCND:US1WIVL0002,METERS,-89.2396654933691
500.8,2012-10-17,2017-12-05,46.2577896118164,"PRESQUE ISLE 0.8 NNW, WI US",0.3076,GHCND:US1WIVL0003,METERS,-89.7331619262695
531.9,2013-04-01,2015-12-15,46.1642227172852,"LAND O LAKES 6.0 W, WI US",0.1931,GHCND:US1WIVL0005,METERS,-89.333625793457
500.2,2013-06-05,2016-11-22,45.932558,"EAGLE RIVER 0.6 NNW, WI US",0.4933,GHCND:US1WIVL0007,METERS,-89.261581
522.4,2014-01-13,2025-11-03,46.19023,"LAND O LAKES 11.7 W, WI US",0.993,GHCND:US1WIVL0009,METERS,-89.45787
533.7,2014-08-25,2020-05-31,46.1744,"LAND O LAKES 4.3 WNW, WI US",0.9013,GHCND:US1WIVL0010,METERS,-89.30379
498.7,2015-03-17,2017-10-28,45.929679,"ST GERMAIN 3.4 WNW, WI US",0.1829,GHCND:US1WIVL0011,METERS,-89.553614
498.0,2015-04-20,2018-05-31,45.91578,"EAGLE RIVER 0.8 SW, WI US",0.196,GHCND:US1WIVL0012,METERS,-89.269861
497.7,2017-10-12,2018-04-21,45.908784,"ST. GERMAIN 0.8 SW, WI US",0.7813,GHCND:US1WIVL0013,METERS,-89.502721
506.9,2018-10-02,2025-11-03,46.1284,"BOULDER JUNCTION 1.4 NE, WI US",0.7996,GHCND:US1WIVL0014,METERS,-89.6247
486.5,2022-02-27,2023-06-02,45.9058,"LAC DU FLAMBEAU 4.9 SSE, WI US",0.6377,GHCND:US1WIVL0020,METERS,-89.86123
515.1,2024-03-12,2025-11-03,46.0864946778034,"CONOVER 4.8 WNW, WI US",0.9734,GHCND:US1WIVL0023,METERS,-89.3458983201147
506.6,2024-03-11,2025-11-03,45.924268,"WOODRUFF 2.5 NE, WI US",0.806,GHCND:US1WIVL0024,METERS,-89.662689
512.4,2024-05-01,2024-11-27,46.2008,"PRESQUE ISLE 7.0 ESE, WI US",0.8436,GHCND:US1WIVL0025,METERS,-89.5998
295.0,2009-06-30,2022-12-08,43.6513833,"HILLSBORO 0.5 WSW, WI US",0.2344,GHCND:US1WIVR0001,METERS,-90.3475387
370.0,2013-08-31,2025-11-03,43.55304,"VIROQUA 0.8 ESE, WI US",0.9611,GHCND:US1WIVR0002,METERS,-90.871002
244.1,2014-03-18,2020-01-13,43.5268,"VIOLA 3.5 WNW, WI US",0.6377,GHCND:US1WIVR0003,METERS,-90.7385
228.9,2015-05-24,2024-08-01,43.7011731415987,"COON VALLEY 0.1 WSW, WI US",0.1304,GHCND:US1WIVR0004,METERS,-91.0128302872181
379.8,2016-08-13,2021-01-13,43.560528,"VIROQUA 0.7 WNW, WI US",0.5486,GHCND:US1WIVR0005,METERS,-90.899275
199.9,2019-03-13,2020-03-27,43.6605,"STODDARD 0.1 SW, WI US",0.9659,GHCND:US1WIVR0006,METERS,-91.2193
226.2,2020-01-24,2025-11-03,43.718739,"STODDARD 4.7 NNE, WI US",0.8318,GHCND:US1WIVR0007,METERS,-91.168158
356.6,2021-03-21,2025-10-27,43.4244703,"VIROQUA 9.3 S, WI US",0.1914,GHCND:US1WIVR0008,METERS,-90.8731062
218.5,2022-03-30,2025-11-02,43.6745227,"STODDARD 1.5 NE, WI US",0.9338,GHCND:US1WIVR0010,METERS,-91.1947887
391.1,2022-06-06,2025-11-01,43.653833,"WESTBY 0.4 E, WI US",0.2257,GHCND:US1WIVR0011,METERS,-90.850156
404.8,2008-04-04,2025-11-03,45.859596,"STONE LAKE 2.0 NW, WI US",0.9603,GHCND:US1WIWB0002,METERS,-91.577122
343.5,2014-06-15,2025-10-10,45.8361833542585,"SPOONER, WI US",0.2162,GHCND:US1WIWB0005,METERS,-91.906752884388
